[{
		"county": "北京市",
		"lon": 116.4,
		"lat": 39.9
	}, {
		"county": "天安门",
		"lon": 116.38,
		"lat": 39.9
	}, {
		"county": "东城区",
		"lon": 116.42,
		"lat": 39.93
	}, {
		"county": "西城区",
		"lon": 116.37,
		"lat": 39.92
	}, {
		"county": "崇文区",
		"lon": 116.43,
		"lat": 39.88
	}, {
		"county": "宣武区",
		"lon": 116.35,
		"lat": 39.87
	}, {
		"county": "朝阳区",
		"lon": 116.43,
		"lat": 39.92
	}, {
		"county": "丰台区",
		"lon": 116.28,
		"lat": 39.85
	}, {
		"county": "石景山区",
		"lon": 116.22,
		"lat": 39.9
	}, {
		"county": "海淀区",
		"lon": 116.3,
		"lat": 39.95
	}, {
		"county": "门头沟区",
		"lon": 116.1,
		"lat": 39.93
	}, {
		"county": "房山区",
		"lon": 116.13,
		"lat": 39.75
	}, {
		"county": "通州区",
		"lon": 116.65,
		"lat": 39.92
	}, {
		"county": "顺义区",
		"lon": 116.65,
		"lat": 40.13
	}, {
		"county": "昌平区",
		"lon": 116.23,
		"lat": 40.22
	}, {
		"county": "大兴区",
		"lon": 116.33,
		"lat": 39.73
	}, {
		"county": "怀柔区",
		"lon": 116.63,
		"lat": 40.32
	}, {
		"county": "平谷区",
		"lon": 117.12,
		"lat": 40.13
	}, {
		"county": "密云县",
		"lon": 116.83,
		"lat": 40.37
	}, {
		"county": "延庆县",
		"lon": 115.97,
		"lat": 40.45
	}, {
		"county": "天津市",
		"lon": 117.2,
		"lat": 39.12
	}, {
		"county": "和平区",
		"lon": 117.2,
		"lat": 39.12
	}, {
		"county": "河东区",
		"lon": 117.22,
		"lat": 39.12
	}, {
		"county": "河西区",
		"lon": 117.22,
		"lat": 39.12
	}, {
		"county": "南开区",
		"lon": 117.15,
		"lat": 39.13
	}, {
		"county": "河北区",
		"lon": 117.18,
		"lat": 39.15
	}, {
		"county": "红桥区",
		"lon": 117.15,
		"lat": 39.17
	}, {
		"county": "塘沽区",
		"lon": 117.65,
		"lat": 39.02
	}, {
		"county": "汉沽区",
		"lon": 117.8,
		"lat": 39.25
	}, {
		"county": "大港区",
		"lon": 117.45,
		"lat": 38.83
	}, {
		"county": "东丽区",
		"lon": 117.3,
		"lat": 39.08
	}, {
		"county": "西青区",
		"lon": 117.0,
		"lat": 39.13
	}, {
		"county": "津南区",
		"lon": 117.38,
		"lat": 38.98
	}, {
		"county": "北辰区",
		"lon": 117.13,
		"lat": 39.22
	}, {
		"county": "武清区",
		"lon": 117.03,
		"lat": 39.38
	}, {
		"county": "宝坻区",
		"lon": 117.3,
		"lat": 39.72
	}, {
		"county": "滨海新区",
		"lon": 117.68,
		"lat": 39.03
	}, {
		"county": "宁河县",
		"lon": 117.82,
		"lat": 39.33
	}, {
		"county": "静海县",
		"lon": 116.92,
		"lat": 38.93
	}, {
		"county": "蓟县",
		"lon": 117.4,
		"lat": 40.05
	}, {
		"county": "石家庄市",
		"lon": 114.52,
		"lat": 38.05
	}, {
		"county": "长安区",
		"lon": 114.52,
		"lat": 38.05
	}, {
		"county": "桥东区",
		"lon": 114.5,
		"lat": 38.05
	}, {
		"county": "桥东区",
		"lon": 114.9,
		"lat": 40.78
	}, {
		"county": "桥东区",
		"lon": 114.5,
		"lat": 37.07
	}, {
		"county": "桥西区",
		"lon": 114.47,
		"lat": 37.05
	}, {
		"county": "桥西区",
		"lon": 114.87,
		"lat": 40.83
	}, {
		"county": "桥西区",
		"lon": 114.47,
		"lat": 38.03
	}, {
		"county": "新华区",
		"lon": 114.47,
		"lat": 38.05
	}, {
		"county": "新华区",
		"lon": 116.87,
		"lat": 38.32
	}, {
		"county": "井陉矿区",
		"lon": 114.05,
		"lat": 38.08
	}, {
		"county": "裕华区",
		"lon": 114.52,
		"lat": 38.02
	}, {
		"county": "井陉县",
		"lon": 114.13,
		"lat": 38.03
	}, {
		"county": "正定县",
		"lon": 114.57,
		"lat": 38.15
	}, {
		"county": "栾城县",
		"lon": 114.65,
		"lat": 37.88
	}, {
		"county": "行唐县",
		"lon": 114.55,
		"lat": 38.43
	}, {
		"county": "灵寿县",
		"lon": 114.37,
		"lat": 38.3
	}, {
		"county": "高邑县",
		"lon": 114.6,
		"lat": 37.6
	}, {
		"county": "深泽县",
		"lon": 115.2,
		"lat": 38.18
	}, {
		"county": "赞皇县",
		"lon": 114.38,
		"lat": 37.67
	}, {
		"county": "无极县",
		"lon": 114.97,
		"lat": 38.18
	}, {
		"county": "平山县",
		"lon": 114.2,
		"lat": 38.25
	}, {
		"county": "元氏县",
		"lon": 114.52,
		"lat": 37.75
	}, {
		"county": "赵县",
		"lon": 114.77,
		"lat": 37.75
	}, {
		"county": "辛集市",
		"lon": 115.22,
		"lat": 37.92
	}, {
		"county": "藁城市",
		"lon": 114.83,
		"lat": 38.03
	}, {
		"county": "晋州市",
		"lon": 115.03,
		"lat": 38.03
	}, {
		"county": "新乐市",
		"lon": 114.68,
		"lat": 38.35
	}, {
		"county": "鹿泉市",
		"lon": 114.3,
		"lat": 38.08
	}, {
		"county": "唐山市",
		"lon": 118.2,
		"lat": 39.63
	}, {
		"county": "路南区",
		"lon": 118.17,
		"lat": 39.63
	}, {
		"county": "路北区",
		"lon": 118.22,
		"lat": 39.63
	}, {
		"county": "古冶区",
		"lon": 118.42,
		"lat": 39.73
	}, {
		"county": "开平区",
		"lon": 118.27,
		"lat": 39.68
	}, {
		"county": "丰南区",
		"lon": 118.1,
		"lat": 39.57
	}, {
		"county": "丰润区",
		"lon": 118.17,
		"lat": 39.83
	}, {
		"county": "滦县",
		"lon": 118.7,
		"lat": 39.75
	}, {
		"county": "滦南县",
		"lon": 118.68,
		"lat": 39.5
	}, {
		"county": "乐亭县",
		"lon": 118.9,
		"lat": 39.42
	}, {
		"county": "迁西县",
		"lon": 118.32,
		"lat": 40.15
	}, {
		"county": "玉田县",
		"lon": 117.73,
		"lat": 39.88
	}, {
		"county": "唐海县",
		"lon": 118.45,
		"lat": 39.27
	}, {
		"county": "遵化市",
		"lon": 117.95,
		"lat": 40.18
	}, {
		"county": "迁安市",
		"lon": 118.7,
		"lat": 40.02
	}, {
		"county": "秦皇岛市",
		"lon": 119.6,
		"lat": 39.93
	}, {
		"county": "海港区",
		"lon": 119.6,
		"lat": 39.93
	}, {
		"county": "山海关区",
		"lon": 119.77,
		"lat": 40.0
	}, {
		"county": "北戴河区",
		"lon": 119.48,
		"lat": 39.83
	}, {
		"county": "青龙满族自治县",
		"lon": 118.95,
		"lat": 40.4
	}, {
		"county": "昌黎县",
		"lon": 119.17,
		"lat": 39.7
	}, {
		"county": "抚宁县",
		"lon": 119.23,
		"lat": 39.88
	}, {
		"county": "卢龙县",
		"lon": 118.87,
		"lat": 39.88
	}, {
		"county": "邯郸市",
		"lon": 114.48,
		"lat": 36.62
	}, {
		"county": "邯山区",
		"lon": 114.48,
		"lat": 36.6
	}, {
		"county": "丛台区",
		"lon": 114.48,
		"lat": 36.63
	}, {
		"county": "复兴区",
		"lon": 114.45,
		"lat": 36.63
	}, {
		"county": "峰峰矿区",
		"lon": 114.2,
		"lat": 36.42
	}, {
		"county": "邯郸县",
		"lon": 114.53,
		"lat": 36.6
	}, {
		"county": "临漳县",
		"lon": 114.62,
		"lat": 36.35
	}, {
		"county": "成安县",
		"lon": 114.68,
		"lat": 36.43
	}, {
		"county": "大名县",
		"lon": 115.15,
		"lat": 36.28
	}, {
		"county": "涉县",
		"lon": 113.67,
		"lat": 36.57
	}, {
		"county": "磁县",
		"lon": 114.37,
		"lat": 36.35
	}, {
		"county": "肥乡县",
		"lon": 114.8,
		"lat": 36.55
	}, {
		"county": "永年县",
		"lon": 114.48,
		"lat": 36.78
	}, {
		"county": "邱县",
		"lon": 115.17,
		"lat": 36.82
	}, {
		"county": "鸡泽县",
		"lon": 114.87,
		"lat": 36.92
	}, {
		"county": "广平县",
		"lon": 114.93,
		"lat": 36.48
	}, {
		"county": "馆陶县",
		"lon": 115.3,
		"lat": 36.53
	}, {
		"county": "魏县",
		"lon": 114.93,
		"lat": 36.37
	}, {
		"county": "曲周县",
		"lon": 114.95,
		"lat": 36.78
	}, {
		"county": "武安市",
		"lon": 114.2,
		"lat": 36.7
	}, {
		"county": "邢台市",
		"lon": 114.48,
		"lat": 37.07
	}, {
		"county": "桥东区",
		"lon": 114.5,
		"lat": 38.05
	}, {
		"county": "桥东区",
		"lon": 114.9,
		"lat": 40.78
	}, {
		"county": "桥东区",
		"lon": 114.5,
		"lat": 37.07
	}, {
		"county": "桥西区",
		"lon": 114.87,
		"lat": 40.83
	}, {
		"county": "桥西区",
		"lon": 114.47,
		"lat": 38.03
	}, {
		"county": "桥西区",
		"lon": 114.47,
		"lat": 37.05
	}, {
		"county": "邢台县",
		"lon": 114.5,
		"lat": 37.08
	}, {
		"county": "临城县",
		"lon": 114.5,
		"lat": 37.43
	}, {
		"county": "内丘县",
		"lon": 114.52,
		"lat": 37.3
	}, {
		"county": "柏乡县",
		"lon": 114.68,
		"lat": 37.5
	}, {
		"county": "隆尧县",
		"lon": 114.77,
		"lat": 37.35
	}, {
		"county": "任县",
		"lon": 114.68,
		"lat": 37.13
	}, {
		"county": "南和县",
		"lon": 114.68,
		"lat": 37.0
	}, {
		"county": "宁晋县",
		"lon": 114.92,
		"lat": 37.62
	}, {
		"county": "巨鹿县",
		"lon": 115.03,
		"lat": 37.22
	}, {
		"county": "新河县",
		"lon": 115.25,
		"lat": 37.53
	}, {
		"county": "广宗县",
		"lon": 115.15,
		"lat": 37.07
	}, {
		"county": "平乡县",
		"lon": 115.03,
		"lat": 37.07
	}, {
		"county": "威县",
		"lon": 115.25,
		"lat": 36.98
	}, {
		"county": "清河县",
		"lon": 115.67,
		"lat": 37.07
	}, {
		"county": "临西县",
		"lon": 115.5,
		"lat": 36.85
	}, {
		"county": "南宫市",
		"lon": 115.38,
		"lat": 37.35
	}, {
		"county": "沙河市",
		"lon": 114.5,
		"lat": 36.85
	}, {
		"county": "保定市",
		"lon": 115.47,
		"lat": 38.87
	}, {
		"county": "新市区",
		"lon": 115.45,
		"lat": 38.87
	}, {
		"county": "北市区",
		"lon": 115.48,
		"lat": 38.87
	}, {
		"county": "南市区",
		"lon": 115.5,
		"lat": 38.85
	}, {
		"county": "满城县",
		"lon": 115.32,
		"lat": 38.95
	}, {
		"county": "清苑县",
		"lon": 115.48,
		"lat": 38.77
	}, {
		"county": "涞水县",
		"lon": 115.72,
		"lat": 39.4
	}, {
		"county": "阜平县",
		"lon": 114.18,
		"lat": 38.85
	}, {
		"county": "徐水县",
		"lon": 115.65,
		"lat": 39.02
	}, {
		"county": "定兴县",
		"lon": 115.77,
		"lat": 39.27
	}, {
		"county": "唐县",
		"lon": 114.98,
		"lat": 38.75
	}, {
		"county": "高阳县",
		"lon": 115.78,
		"lat": 38.68
	}, {
		"county": "容城县",
		"lon": 115.87,
		"lat": 39.05
	}, {
		"county": "涞源县",
		"lon": 114.68,
		"lat": 39.35
	}, {
		"county": "望都县",
		"lon": 115.15,
		"lat": 38.72
	}, {
		"county": "安新县",
		"lon": 115.93,
		"lat": 38.92
	}, {
		"county": "易县",
		"lon": 115.5,
		"lat": 39.35
	}, {
		"county": "曲阳县",
		"lon": 114.7,
		"lat": 38.62
	}, {
		"county": "蠡县",
		"lon": 115.57,
		"lat": 38.48
	}, {
		"county": "顺平县",
		"lon": 115.13,
		"lat": 38.83
	}, {
		"county": "博野县",
		"lon": 115.47,
		"lat": 38.45
	}, {
		"county": "雄县",
		"lon": 116.1,
		"lat": 38.98
	}, {
		"county": "涿州市",
		"lon": 115.97,
		"lat": 39.48
	}, {
		"county": "定州市",
		"lon": 114.97,
		"lat": 38.52
	}, {
		"county": "安国市",
		"lon": 115.32,
		"lat": 38.42
	}, {
		"county": "高碑店市",
		"lon": 115.85,
		"lat": 39.33
	}, {
		"county": "张家口市",
		"lon": 114.88,
		"lat": 40.82
	}, {
		"county": "桥东区",
		"lon": 114.5,
		"lat": 38.05
	}, {
		"county": "桥东区",
		"lon": 114.9,
		"lat": 40.78
	}, {
		"county": "桥东区",
		"lon": 114.5,
		"lat": 37.07
	}, {
		"county": "桥西区",
		"lon": 114.87,
		"lat": 40.83
	}, {
		"county": "桥西区",
		"lon": 114.47,
		"lat": 38.03
	}, {
		"county": "桥西区",
		"lon": 114.47,
		"lat": 37.05
	}, {
		"county": "宣化区",
		"lon": 115.05,
		"lat": 40.6
	}, {
		"county": "下花园区",
		"lon": 115.27,
		"lat": 40.48
	}, {
		"county": "宣化县",
		"lon": 115.02,
		"lat": 40.55
	}, {
		"county": "张北县",
		"lon": 114.7,
		"lat": 41.15
	}, {
		"county": "康保县",
		"lon": 114.62,
		"lat": 41.85
	}, {
		"county": "沽源县",
		"lon": 115.7,
		"lat": 41.67
	}, {
		"county": "尚义县",
		"lon": 113.97,
		"lat": 41.08
	}, {
		"county": "蔚县",
		"lon": 114.57,
		"lat": 39.85
	}, {
		"county": "阳原县",
		"lon": 114.17,
		"lat": 40.12
	}, {
		"county": "怀安县",
		"lon": 114.42,
		"lat": 40.67
	}, {
		"county": "万全县",
		"lon": 114.72,
		"lat": 40.75
	}, {
		"county": "怀来县",
		"lon": 115.52,
		"lat": 40.4
	}, {
		"county": "涿鹿县",
		"lon": 115.22,
		"lat": 40.38
	}, {
		"county": "赤城县",
		"lon": 115.83,
		"lat": 40.92
	}, {
		"county": "崇礼县",
		"lon": 115.27,
		"lat": 40.97
	}, {
		"county": "承德市",
		"lon": 117.93,
		"lat": 40.97
	}, {
		"county": "双桥区",
		"lon": 117.93,
		"lat": 40.97
	}, {
		"county": "双滦区",
		"lon": 117.78,
		"lat": 40.95
	}, {
		"county": "鹰手营子矿区",
		"lon": 117.65,
		"lat": 40.55
	}, {
		"county": "承德县",
		"lon": 118.17,
		"lat": 40.77
	}, {
		"county": "兴隆县",
		"lon": 117.52,
		"lat": 40.43
	}, {
		"county": "平泉县",
		"lon": 118.68,
		"lat": 41.0
	}, {
		"county": "滦平县",
		"lon": 117.33,
		"lat": 40.93
	}, {
		"county": "隆化县",
		"lon": 117.72,
		"lat": 41.32
	}, {
		"county": "丰宁满族自治县",
		"lon": 116.65,
		"lat": 41.2
	}, {
		"county": "宽城满族自治县",
		"lon": 118.48,
		"lat": 40.6
	}, {
		"county": "围场满族蒙古族自治县",
		"lon": 117.75,
		"lat": 41.93
	}, {
		"county": "沧州市",
		"lon": 116.83,
		"lat": 38.3
	}, {
		"county": "新华区",
		"lon": 114.47,
		"lat": 38.05
	}, {
		"county": "新华区",
		"lon": 116.87,
		"lat": 38.32
	}, {
		"county": "运河区",
		"lon": 116.85,
		"lat": 38.32
	}, {
		"county": "沧县",
		"lon": 116.87,
		"lat": 38.3
	}, {
		"county": "青县",
		"lon": 116.82,
		"lat": 38.58
	}, {
		"county": "东光县",
		"lon": 116.53,
		"lat": 37.88
	}, {
		"county": "海兴县",
		"lon": 117.48,
		"lat": 38.13
	}, {
		"county": "盐山县",
		"lon": 117.22,
		"lat": 38.05
	}, {
		"county": "肃宁县",
		"lon": 115.83,
		"lat": 38.43
	}, {
		"county": "南皮县",
		"lon": 116.7,
		"lat": 38.03
	}, {
		"county": "吴桥县",
		"lon": 116.38,
		"lat": 37.62
	}, {
		"county": "献县",
		"lon": 116.12,
		"lat": 38.18
	}, {
		"county": "孟村回族自治县",
		"lon": 117.1,
		"lat": 38.07
	}, {
		"county": "泊头市",
		"lon": 116.57,
		"lat": 38.07
	}, {
		"county": "任丘市",
		"lon": 116.1,
		"lat": 38.72
	}, {
		"county": "黄骅市",
		"lon": 117.35,
		"lat": 38.37
	}, {
		"county": "河间市",
		"lon": 116.08,
		"lat": 38.43
	}, {
		"county": "廊坊市",
		"lon": 116.7,
		"lat": 39.52
	}, {
		"county": "安次区",
		"lon": 116.68,
		"lat": 39.52
	}, {
		"county": "广阳区",
		"lon": 116.72,
		"lat": 39.53
	}, {
		"county": "固安县",
		"lon": 116.3,
		"lat": 39.43
	}, {
		"county": "永清县",
		"lon": 116.5,
		"lat": 39.32
	}, {
		"county": "香河县",
		"lon": 117.0,
		"lat": 39.77
	}, {
		"county": "大城县",
		"lon": 116.63,
		"lat": 38.7
	}, {
		"county": "文安县",
		"lon": 116.47,
		"lat": 38.87
	}, {
		"county": "大厂回族自治县",
		"lon": 116.98,
		"lat": 39.88
	}, {
		"county": "霸州市",
		"lon": 116.4,
		"lat": 39.1
	}, {
		"county": "三河市",
		"lon": 117.07,
		"lat": 39.98
	}, {
		"county": "衡水市",
		"lon": 115.68,
		"lat": 37.73
	}, {
		"county": "桃城区",
		"lon": 115.68,
		"lat": 37.73
	}, {
		"county": "枣强县",
		"lon": 115.72,
		"lat": 37.52
	}, {
		"county": "武邑县",
		"lon": 115.88,
		"lat": 37.82
	}, {
		"county": "武强县",
		"lon": 115.98,
		"lat": 38.03
	}, {
		"county": "饶阳县",
		"lon": 115.73,
		"lat": 38.23
	}, {
		"county": "安平县",
		"lon": 115.52,
		"lat": 38.23
	}, {
		"county": "故城县",
		"lon": 115.97,
		"lat": 37.35
	}, {
		"county": "景县",
		"lon": 116.27,
		"lat": 37.7
	}, {
		"county": "阜城县",
		"lon": 116.15,
		"lat": 37.87
	}, {
		"county": "冀州市",
		"lon": 115.57,
		"lat": 37.57
	}, {
		"county": "深州市",
		"lon": 115.55,
		"lat": 38.02
	}, {
		"county": "太原市",
		"lon": 112.55,
		"lat": 37.87
	}, {
		"county": "小店区",
		"lon": 112.57,
		"lat": 37.73
	}, {
		"county": "迎泽区",
		"lon": 112.57,
		"lat": 37.87
	}, {
		"county": "杏花岭区",
		"lon": 112.57,
		"lat": 37.88
	}, {
		"county": "尖草坪区",
		"lon": 112.48,
		"lat": 37.93
	}, {
		"county": "万柏林区",
		"lon": 112.52,
		"lat": 37.87
	}, {
		"county": "晋源区",
		"lon": 112.48,
		"lat": 37.73
	}, {
		"county": "清徐县",
		"lon": 112.35,
		"lat": 37.6
	}, {
		"county": "阳曲县",
		"lon": 112.67,
		"lat": 38.07
	}, {
		"county": "娄烦县",
		"lon": 111.78,
		"lat": 38.07
	}, {
		"county": "古交市",
		"lon": 112.17,
		"lat": 37.92
	}, {
		"county": "大同市",
		"lon": 113.3,
		"lat": 40.08
	}, {
		"county": "城区",
		"lon": 113.28,
		"lat": 40.08
	}, {
		"county": "城区",
		"lon": 113.6,
		"lat": 37.85
	}, {
		"county": "城区",
		"lon": 113.12,
		"lat": 36.22
	}, {
		"county": "城区",
		"lon": 112.83,
		"lat": 35.5
	}, {
		"county": "矿区",
		"lon": 113.17,
		"lat": 40.03
	}, {
		"county": "矿区",
		"lon": 113.57,
		"lat": 37.87
	}, {
		"county": "南郊区",
		"lon": 113.13,
		"lat": 40.0
	}, {
		"county": "新荣区",
		"lon": 113.15,
		"lat": 40.27
	}, {
		"county": "阳高县",
		"lon": 113.75,
		"lat": 40.37
	}, {
		"county": "天镇县",
		"lon": 114.08,
		"lat": 40.42
	}, {
		"county": "广灵县",
		"lon": 114.28,
		"lat": 39.77
	}, {
		"county": "灵丘县",
		"lon": 114.23,
		"lat": 39.43
	}, {
		"county": "浑源县",
		"lon": 113.68,
		"lat": 39.7
	}, {
		"county": "左云县",
		"lon": 112.7,
		"lat": 40.0
	}, {
		"county": "大同县",
		"lon": 113.6,
		"lat": 40.03
	}, {
		"county": "阳泉市",
		"lon": 113.57,
		"lat": 37.85
	}, {
		"county": "城区",
		"lon": 113.28,
		"lat": 40.08
	}, {
		"county": "城区",
		"lon": 113.6,
		"lat": 37.85
	}, {
		"county": "城区",
		"lon": 113.12,
		"lat": 36.22
	}, {
		"county": "城区",
		"lon": 112.83,
		"lat": 35.5
	}, {
		"county": "矿区",
		"lon": 113.17,
		"lat": 40.03
	}, {
		"county": "矿区",
		"lon": 113.57,
		"lat": 37.87
	}, {
		"county": "郊区",
		"lon": 113.58,
		"lat": 37.93
	}, {
		"county": "郊区",
		"lon": 113.12,
		"lat": 36.2
	}, {
		"county": "平定县",
		"lon": 113.62,
		"lat": 37.8
	}, {
		"county": "盂县",
		"lon": 113.4,
		"lat": 38.08
	}, {
		"county": "长治市",
		"lon": 113.12,
		"lat": 36.2
	}, {
		"county": "城区",
		"lon": 113.28,
		"lat": 40.08
	}, {
		"county": "城区",
		"lon": 113.6,
		"lat": 37.85
	}, {
		"county": "城区",
		"lon": 113.12,
		"lat": 36.22
	}, {
		"county": "城区",
		"lon": 112.83,
		"lat": 35.5
	}, {
		"county": "郊区",
		"lon": 113.58,
		"lat": 37.93
	}, {
		"county": "郊区",
		"lon": 113.12,
		"lat": 36.2
	}, {
		"county": "长治县",
		"lon": 113.03,
		"lat": 36.05
	}, {
		"county": "襄垣县",
		"lon": 113.05,
		"lat": 36.53
	}, {
		"county": "屯留县",
		"lon": 112.88,
		"lat": 36.32
	}, {
		"county": "平顺县",
		"lon": 113.43,
		"lat": 36.2
	}, {
		"county": "黎城县",
		"lon": 113.38,
		"lat": 36.5
	}, {
		"county": "壶关县",
		"lon": 113.2,
		"lat": 36.12
	}, {
		"county": "长子县",
		"lon": 112.87,
		"lat": 36.12
	}, {
		"county": "武乡县",
		"lon": 112.85,
		"lat": 36.83
	}, {
		"county": "沁县",
		"lon": 112.7,
		"lat": 36.75
	}, {
		"county": "沁源县",
		"lon": 112.33,
		"lat": 36.5
	}, {
		"county": "潞城市",
		"lon": 113.22,
		"lat": 36.33
	}, {
		"county": "晋城市",
		"lon": 112.83,
		"lat": 35.5
	}, {
		"county": "城区",
		"lon": 113.28,
		"lat": 40.08
	}, {
		"county": "城区",
		"lon": 113.6,
		"lat": 37.85
	}, {
		"county": "城区",
		"lon": 113.12,
		"lat": 36.22
	}, {
		"county": "城区",
		"lon": 112.83,
		"lat": 35.5
	}, {
		"county": "沁水县",
		"lon": 112.18,
		"lat": 35.68
	}, {
		"county": "阳城县",
		"lon": 112.42,
		"lat": 35.48
	}, {
		"county": "陵川县",
		"lon": 113.27,
		"lat": 35.78
	}, {
		"county": "泽州县",
		"lon": 112.83,
		"lat": 35.5
	}, {
		"county": "高平市",
		"lon": 112.92,
		"lat": 35.8
	}, {
		"county": "朔州市",
		"lon": 112.43,
		"lat": 39.33
	}, {
		"county": "朔城区",
		"lon": 112.43,
		"lat": 39.33
	}, {
		"county": "山阴县",
		"lon": 112.82,
		"lat": 39.52
	}, {
		"county": "应县",
		"lon": 113.18,
		"lat": 39.55
	}, {
		"county": "右玉县",
		"lon": 112.47,
		"lat": 39.98
	}, {
		"county": "怀仁县",
		"lon": 113.08,
		"lat": 39.83
	}, {
		"county": "晋中市",
		"lon": 112.75,
		"lat": 37.68
	}, {
		"county": "榆次区",
		"lon": 112.75,
		"lat": 37.68
	}, {
		"county": "榆社县",
		"lon": 112.97,
		"lat": 37.07
	}, {
		"county": "左权县",
		"lon": 113.37,
		"lat": 37.07
	}, {
		"county": "和顺县",
		"lon": 113.57,
		"lat": 37.33
	}, {
		"county": "昔阳县",
		"lon": 113.7,
		"lat": 37.62
	}, {
		"county": "寿阳县",
		"lon": 113.18,
		"lat": 37.88
	}, {
		"county": "太谷县",
		"lon": 112.55,
		"lat": 37.42
	}, {
		"county": "祁县",
		"lon": 112.33,
		"lat": 37.35
	}, {
		"county": "平遥县",
		"lon": 112.17,
		"lat": 37.18
	}, {
		"county": "灵石县",
		"lon": 111.77,
		"lat": 36.85
	}, {
		"county": "介休市",
		"lon": 111.92,
		"lat": 37.03
	}, {
		"county": "运城市",
		"lon": 110.98,
		"lat": 35.02
	}, {
		"county": "盐湖区",
		"lon": 110.98,
		"lat": 35.02
	}, {
		"county": "临猗县",
		"lon": 110.77,
		"lat": 35.15
	}, {
		"county": "万荣县",
		"lon": 110.83,
		"lat": 35.42
	}, {
		"county": "闻喜县",
		"lon": 111.22,
		"lat": 35.35
	}, {
		"county": "稷山县",
		"lon": 110.97,
		"lat": 35.6
	}, {
		"county": "新绛县",
		"lon": 111.22,
		"lat": 35.62
	}, {
		"county": "绛县",
		"lon": 111.57,
		"lat": 35.48
	}, {
		"county": "垣曲县",
		"lon": 111.67,
		"lat": 35.3
	}, {
		"county": "夏县",
		"lon": 111.22,
		"lat": 35.15
	}, {
		"county": "平陆县",
		"lon": 111.22,
		"lat": 34.83
	}, {
		"county": "芮城县",
		"lon": 110.68,
		"lat": 34.7
	}, {
		"county": "河津市",
		"lon": 110.7,
		"lat": 35.6
	}, {
		"county": "忻州市",
		"lon": 112.73,
		"lat": 38.42
	}, {
		"county": "忻府区",
		"lon": 112.73,
		"lat": 38.42
	}, {
		"county": "定襄县",
		"lon": 112.95,
		"lat": 38.48
	}, {
		"county": "五台县",
		"lon": 113.25,
		"lat": 38.73
	}, {
		"county": "代县",
		"lon": 112.95,
		"lat": 39.07
	}, {
		"county": "繁峙县",
		"lon": 113.25,
		"lat": 39.18
	}, {
		"county": "宁武县",
		"lon": 112.3,
		"lat": 39.0
	}, {
		"county": "静乐县",
		"lon": 111.93,
		"lat": 38.37
	}, {
		"county": "神池县",
		"lon": 112.2,
		"lat": 39.08
	}, {
		"county": "五寨县",
		"lon": 111.85,
		"lat": 38.9
	}, {
		"county": "岢岚县",
		"lon": 111.57,
		"lat": 38.7
	}, {
		"county": "河曲县",
		"lon": 111.13,
		"lat": 39.38
	}, {
		"county": "偏关县",
		"lon": 111.5,
		"lat": 39.43
	}, {
		"county": "原平市",
		"lon": 112.7,
		"lat": 38.73
	}, {
		"county": "临汾市",
		"lon": 111.52,
		"lat": 36.08
	}, {
		"county": "尧都区",
		"lon": 111.52,
		"lat": 36.08
	}, {
		"county": "曲沃县",
		"lon": 111.47,
		"lat": 35.63
	}, {
		"county": "翼城县",
		"lon": 111.72,
		"lat": 35.73
	}, {
		"county": "襄汾县",
		"lon": 111.43,
		"lat": 35.88
	}, {
		"county": "洪洞县",
		"lon": 111.67,
		"lat": 36.25
	}, {
		"county": "古县",
		"lon": 111.92,
		"lat": 36.27
	}, {
		"county": "安泽县",
		"lon": 112.25,
		"lat": 36.15
	}, {
		"county": "浮山县",
		"lon": 111.83,
		"lat": 35.97
	}, {
		"county": "吉县",
		"lon": 110.68,
		"lat": 36.1
	}, {
		"county": "乡宁县",
		"lon": 110.83,
		"lat": 35.97
	}, {
		"county": "大宁县",
		"lon": 110.75,
		"lat": 36.47
	}, {
		"county": "隰县",
		"lon": 110.93,
		"lat": 36.7
	}, {
		"county": "永和县",
		"lon": 110.63,
		"lat": 36.77
	}, {
		"county": "蒲县",
		"lon": 111.08,
		"lat": 36.42
	}, {
		"county": "汾西县",
		"lon": 111.57,
		"lat": 36.65
	}, {
		"county": "侯马市",
		"lon": 111.35,
		"lat": 35.62
	}, {
		"county": "霍州市",
		"lon": 111.72,
		"lat": 36.57
	}, {
		"county": "吕梁市",
		"lon": 111.13,
		"lat": 37.52
	}, {
		"county": "离石区",
		"lon": 111.13,
		"lat": 37.52
	}, {
		"county": "文水县",
		"lon": 112.02,
		"lat": 37.43
	}, {
		"county": "交城县",
		"lon": 112.15,
		"lat": 37.55
	}, {
		"county": "兴县",
		"lon": 111.12,
		"lat": 38.47
	}, {
		"county": "临县",
		"lon": 110.98,
		"lat": 37.95
	}, {
		"county": "柳林县",
		"lon": 110.9,
		"lat": 37.43
	}, {
		"county": "石楼县",
		"lon": 110.83,
		"lat": 37.0
	}, {
		"county": "岚县",
		"lon": 111.67,
		"lat": 38.28
	}, {
		"county": "方山县",
		"lon": 111.23,
		"lat": 37.88
	}, {
		"county": "中阳县",
		"lon": 111.18,
		"lat": 37.33
	}, {
		"county": "交口县",
		"lon": 111.2,
		"lat": 36.97
	}, {
		"county": "孝义市",
		"lon": 111.77,
		"lat": 37.15
	}, {
		"county": "汾阳市",
		"lon": 111.78,
		"lat": 37.27
	}, {
		"county": "呼和浩特市",
		"lon": 111.73,
		"lat": 40.83
	}, {
		"county": "新城区",
		"lon": 111.65,
		"lat": 40.87
	}, {
		"county": "回民区",
		"lon": 111.6,
		"lat": 40.8
	}, {
		"county": "玉泉区",
		"lon": 111.67,
		"lat": 40.75
	}, {
		"county": "赛罕区",
		"lon": 111.68,
		"lat": 40.8
	}, {
		"county": "土默特左旗",
		"lon": 111.13,
		"lat": 40.72
	}, {
		"county": "托克托县",
		"lon": 111.18,
		"lat": 40.27
	}, {
		"county": "和林格尔县",
		"lon": 111.82,
		"lat": 40.38
	}, {
		"county": "清水河县",
		"lon": 111.68,
		"lat": 39.92
	}, {
		"county": "武川县",
		"lon": 111.45,
		"lat": 41.08
	}, {
		"county": "包头市",
		"lon": 109.83,
		"lat": 40.65
	}, {
		"county": "东河区",
		"lon": 110.02,
		"lat": 40.58
	}, {
		"county": "昆都仑区",
		"lon": 109.83,
		"lat": 40.63
	}, {
		"county": "青山区",
		"lon": 109.9,
		"lat": 40.65
	}, {
		"county": "石拐区",
		"lon": 110.27,
		"lat": 40.68
	}, {
		"county": "九原区",
		"lon": 109.97,
		"lat": 40.6
	}, {
		"county": "土默特右旗",
		"lon": 110.52,
		"lat": 40.57
	}, {
		"county": "固阳县",
		"lon": 110.05,
		"lat": 41.03
	}, {
		"county": "达尔罕茂明安联合旗",
		"lon": 110.43,
		"lat": 41.7
	}, {
		"county": "乌海市",
		"lon": 106.82,
		"lat": 39.67
	}, {
		"county": "海勃湾区",
		"lon": 106.83,
		"lat": 39.7
	}, {
		"county": "海南区",
		"lon": 106.88,
		"lat": 39.43
	}, {
		"county": "乌达区",
		"lon": 106.7,
		"lat": 39.5
	}, {
		"county": "赤峰市",
		"lon": 118.92,
		"lat": 42.27
	}, {
		"county": "红山区",
		"lon": 118.97,
		"lat": 42.28
	}, {
		"county": "元宝山区",
		"lon": 119.28,
		"lat": 42.03
	}, {
		"county": "松山区",
		"lon": 118.92,
		"lat": 42.28
	}, {
		"county": "阿鲁科尔沁旗",
		"lon": 120.08,
		"lat": 43.88
	}, {
		"county": "巴林左旗",
		"lon": 119.38,
		"lat": 43.98
	}, {
		"county": "巴林右旗",
		"lon": 118.67,
		"lat": 43.52
	}, {
		"county": "林西县",
		"lon": 118.05,
		"lat": 43.6
	}, {
		"county": "克什克腾旗",
		"lon": 117.53,
		"lat": 43.25
	}, {
		"county": "翁牛特旗",
		"lon": 119.02,
		"lat": 42.93
	}, {
		"county": "喀喇沁旗",
		"lon": 118.7,
		"lat": 41.93
	}, {
		"county": "宁城县",
		"lon": 119.33,
		"lat": 41.6
	}, {
		"county": "敖汉旗",
		"lon": 119.9,
		"lat": 42.28
	}, {
		"county": "通辽市",
		"lon": 122.27,
		"lat": 43.62
	}, {
		"county": "科尔沁区",
		"lon": 122.27,
		"lat": 43.62
	}, {
		"county": "科尔沁左翼中旗",
		"lon": 123.32,
		"lat": 44.13
	}, {
		"county": "科尔沁左翼后旗",
		"lon": 122.35,
		"lat": 42.95
	}, {
		"county": "开鲁县",
		"lon": 121.3,
		"lat": 43.6
	}, {
		"county": "库伦旗",
		"lon": 121.77,
		"lat": 42.73
	}, {
		"county": "奈曼旗",
		"lon": 120.65,
		"lat": 42.85
	}, {
		"county": "扎鲁特旗",
		"lon": 120.92,
		"lat": 44.55
	}, {
		"county": "霍林郭勒市",
		"lon": 119.65,
		"lat": 45.53
	}, {
		"county": "鄂尔多斯市",
		"lon": 109.8,
		"lat": 39.62
	}, {
		"county": "东胜区",
		"lon": 110.0,
		"lat": 39.82
	}, {
		"county": "达拉特旗",
		"lon": 110.03,
		"lat": 40.4
	}, {
		"county": "准格尔旗",
		"lon": 111.23,
		"lat": 39.87
	}, {
		"county": "鄂托克前旗",
		"lon": 107.48,
		"lat": 38.18
	}, {
		"county": "鄂托克旗",
		"lon": 107.98,
		"lat": 39.1
	}, {
		"county": "杭锦旗",
		"lon": 108.72,
		"lat": 39.83
	}, {
		"county": "乌审旗",
		"lon": 108.85,
		"lat": 38.6
	}, {
		"county": "伊金霍洛旗",
		"lon": 109.73,
		"lat": 39.57
	}, {
		"county": "呼伦贝尔市",
		"lon": 119.77,
		"lat": 49.22
	}, {
		"county": "海拉尔区",
		"lon": 119.77,
		"lat": 49.22
	}, {
		"county": "阿荣旗",
		"lon": 123.47,
		"lat": 48.13
	}, {
		"county": "鄂伦春自治旗",
		"lon": 123.72,
		"lat": 50.58
	}, {
		"county": "鄂温克族自治旗",
		"lon": 119.75,
		"lat": 49.13
	}, {
		"county": "陈巴尔虎旗",
		"lon": 119.43,
		"lat": 49.32
	}, {
		"county": "新巴尔虎左旗",
		"lon": 118.27,
		"lat": 48.22
	}, {
		"county": "新巴尔虎右旗",
		"lon": 116.82,
		"lat": 48.67
	}, {
		"county": "满洲里市",
		"lon": 117.45,
		"lat": 49.58
	}, {
		"county": "牙克石市",
		"lon": 120.73,
		"lat": 49.28
	}, {
		"county": "扎兰屯市",
		"lon": 122.75,
		"lat": 47.98
	}, {
		"county": "额尔古纳市",
		"lon": 120.18,
		"lat": 50.23
	}, {
		"county": "根河市",
		"lon": 121.52,
		"lat": 50.78
	}, {
		"county": "巴彦淖尔市",
		"lon": 107.42,
		"lat": 40.75
	}, {
		"county": "临河区",
		"lon": 107.4,
		"lat": 40.75
	}, {
		"county": "五原县",
		"lon": 108.27,
		"lat": 41.1
	}, {
		"county": "磴口县",
		"lon": 107.02,
		"lat": 40.33
	}, {
		"county": "乌拉特前旗",
		"lon": 108.65,
		"lat": 40.72
	}, {
		"county": "乌拉特中旗",
		"lon": 108.52,
		"lat": 41.57
	}, {
		"county": "乌拉特后旗",
		"lon": 107.07,
		"lat": 41.1
	}, {
		"county": "杭锦后旗",
		"lon": 107.15,
		"lat": 40.88
	}, {
		"county": "乌兰察布市",
		"lon": 113.12,
		"lat": 40.98
	}, {
		"county": "集宁区",
		"lon": 113.1,
		"lat": 41.03
	}, {
		"county": "卓资县",
		"lon": 112.57,
		"lat": 40.9
	}, {
		"county": "化德县",
		"lon": 114.0,
		"lat": 41.9
	}, {
		"county": "商都县",
		"lon": 113.53,
		"lat": 41.55
	}, {
		"county": "兴和县",
		"lon": 113.88,
		"lat": 40.88
	}, {
		"county": "凉城县",
		"lon": 112.48,
		"lat": 40.53
	}, {
		"county": "察哈尔右翼前旗",
		"lon": 113.22,
		"lat": 40.78
	}, {
		"county": "察哈尔右翼中旗",
		"lon": 112.63,
		"lat": 41.27
	}, {
		"county": "察哈尔右翼后旗",
		"lon": 113.18,
		"lat": 41.45
	}, {
		"county": "四子王旗",
		"lon": 111.7,
		"lat": 41.52
	}, {
		"county": "丰镇市",
		"lon": 113.15,
		"lat": 40.43
	}, {
		"county": "兴安盟",
		"lon": 122.05,
		"lat": 46.08
	}, {
		"county": "乌兰浩特市",
		"lon": 122.05,
		"lat": 46.08
	}, {
		"county": "阿尔山市",
		"lon": 119.93,
		"lat": 47.18
	}, {
		"county": "科尔沁右翼前旗",
		"lon": 121.92,
		"lat": 46.07
	}, {
		"county": "科尔沁右翼中旗",
		"lon": 121.47,
		"lat": 45.05
	}, {
		"county": "扎赉特旗",
		"lon": 122.9,
		"lat": 46.73
	}, {
		"county": "突泉县",
		"lon": 121.57,
		"lat": 45.38
	}, {
		"county": "锡林郭勒盟",
		"lon": 116.07,
		"lat": 43.95
	}, {
		"county": "二连浩特市",
		"lon": 111.98,
		"lat": 43.65
	}, {
		"county": "锡林浩特市",
		"lon": 116.07,
		"lat": 43.93
	}, {
		"county": "阿巴嘎旗",
		"lon": 114.97,
		"lat": 44.02
	}, {
		"county": "苏尼特左旗",
		"lon": 113.63,
		"lat": 43.85
	}, {
		"county": "苏尼特右旗",
		"lon": 112.65,
		"lat": 42.75
	}, {
		"county": "东乌珠穆沁旗",
		"lon": 116.97,
		"lat": 45.52
	}, {
		"county": "西乌珠穆沁旗",
		"lon": 117.6,
		"lat": 44.58
	}, {
		"county": "太仆寺旗",
		"lon": 115.28,
		"lat": 41.9
	}, {
		"county": "镶黄旗",
		"lon": 113.83,
		"lat": 42.23
	}, {
		"county": "正镶白旗",
		"lon": 115.0,
		"lat": 42.3
	}, {
		"county": "正蓝旗",
		"lon": 116.0,
		"lat": 42.25
	}, {
		"county": "多伦县",
		"lon": 116.47,
		"lat": 42.18
	}, {
		"county": "阿拉善盟",
		"lon": 105.67,
		"lat": 38.83
	}, {
		"county": "阿拉善左旗",
		"lon": 105.67,
		"lat": 38.83
	}, {
		"county": "阿拉善右旗",
		"lon": 101.68,
		"lat": 39.2
	}, {
		"county": "额济纳旗",
		"lon": 101.07,
		"lat": 41.97
	}, {
		"county": "沈阳市",
		"lon": 123.43,
		"lat": 41.8
	}, {
		"county": "和平区",
		"lon": 123.4,
		"lat": 41.78
	}, {
		"county": "沈河区",
		"lon": 123.45,
		"lat": 41.8
	}, {
		"county": "大东区",
		"lon": 123.47,
		"lat": 41.8
	}, {
		"county": "皇姑区",
		"lon": 123.42,
		"lat": 41.82
	}, {
		"county": "铁西区",
		"lon": 122.95,
		"lat": 41.12
	}, {
		"county": "铁西区",
		"lon": 123.35,
		"lat": 41.8
	}, {
		"county": "苏家屯区",
		"lon": 123.33,
		"lat": 41.67
	}, {
		"county": "东陵区",
		"lon": 123.47,
		"lat": 41.77
	}, {
		"county": "新城子区",
		"lon": 123.52,
		"lat": 42.05
	}, {
		"county": "于洪区",
		"lon": 123.3,
		"lat": 41.78
	}, {
		"county": "辽中县",
		"lon": 122.72,
		"lat": 41.52
	}, {
		"county": "康平县",
		"lon": 123.35,
		"lat": 42.75
	}, {
		"county": "法库县",
		"lon": 123.4,
		"lat": 42.5
	}, {
		"county": "新民市",
		"lon": 122.82,
		"lat": 42.0
	}, {
		"county": "大连市",
		"lon": 121.62,
		"lat": 38.92
	}, {
		"county": "中山区",
		"lon": 121.63,
		"lat": 38.92
	}, {
		"county": "西岗区",
		"lon": 121.6,
		"lat": 38.92
	}, {
		"county": "沙河口区",
		"lon": 121.58,
		"lat": 38.9
	}, {
		"county": "甘井子区",
		"lon": 121.57,
		"lat": 38.95
	}, {
		"county": "旅顺口区",
		"lon": 121.27,
		"lat": 38.82
	}, {
		"county": "金州区",
		"lon": 121.7,
		"lat": 39.1
	}, {
		"county": "长海县",
		"lon": 122.58,
		"lat": 39.27
	}, {
		"county": "瓦房店市",
		"lon": 122.0,
		"lat": 39.62
	}, {
		"county": "普兰店市",
		"lon": 121.95,
		"lat": 39.4
	}, {
		"county": "庄河市",
		"lon": 122.98,
		"lat": 39.7
	}, {
		"county": "鞍山市",
		"lon": 122.98,
		"lat": 41.1
	}, {
		"county": "铁东区",
		"lon": 122.98,
		"lat": 41.1
	}, {
		"county": "铁西区",
		"lon": 122.95,
		"lat": 41.12
	}, {
		"county": "铁西区",
		"lon": 123.35,
		"lat": 41.8
	}, {
		"county": "立山区",
		"lon": 123.0,
		"lat": 41.15
	}, {
		"county": "千山区",
		"lon": 122.97,
		"lat": 41.07
	}, {
		"county": "台安县",
		"lon": 122.42,
		"lat": 41.38
	}, {
		"county": "岫岩满族自治县",
		"lon": 123.28,
		"lat": 40.28
	}, {
		"county": "海城市",
		"lon": 122.7,
		"lat": 40.88
	}, {
		"county": "抚顺市",
		"lon": 123.98,
		"lat": 41.88
	}, {
		"county": "新抚区",
		"lon": 123.88,
		"lat": 41.87
	}, {
		"county": "东洲区",
		"lon": 124.02,
		"lat": 41.85
	}, {
		"county": "望花区",
		"lon": 123.78,
		"lat": 41.85
	}, {
		"county": "顺城区",
		"lon": 123.93,
		"lat": 41.88
	}, {
		"county": "抚顺县",
		"lon": 123.9,
		"lat": 41.88
	}, {
		"county": "新宾满族自治县",
		"lon": 125.03,
		"lat": 41.73
	}, {
		"county": "清原满族自治县",
		"lon": 124.92,
		"lat": 42.1
	}, {
		"county": "本溪市",
		"lon": 123.77,
		"lat": 41.3
	}, {
		"county": "平山区",
		"lon": 123.77,
		"lat": 41.3
	}, {
		"county": "溪湖区",
		"lon": 123.77,
		"lat": 41.33
	}, {
		"county": "明山区",
		"lon": 123.82,
		"lat": 41.3
	}, {
		"county": "南芬区",
		"lon": 123.73,
		"lat": 41.1
	}, {
		"county": "本溪满族自治县",
		"lon": 124.12,
		"lat": 41.3
	}, {
		"county": "桓仁满族自治县",
		"lon": 125.35,
		"lat": 41.27
	}, {
		"county": "丹东市",
		"lon": 124.38,
		"lat": 40.13
	}, {
		"county": "元宝区",
		"lon": 124.38,
		"lat": 40.13
	}, {
		"county": "振兴区",
		"lon": 124.35,
		"lat": 40.08
	}, {
		"county": "振安区",
		"lon": 124.42,
		"lat": 40.17
	}, {
		"county": "宽甸满族自治县",
		"lon": 124.78,
		"lat": 40.73
	}, {
		"county": "东港市",
		"lon": 124.15,
		"lat": 39.87
	}, {
		"county": "凤城市",
		"lon": 124.07,
		"lat": 40.45
	}, {
		"county": "锦州市",
		"lon": 121.13,
		"lat": 41.1
	}, {
		"county": "古塔区",
		"lon": 121.12,
		"lat": 41.13
	}, {
		"county": "凌河区",
		"lon": 121.15,
		"lat": 41.12
	}, {
		"county": "太和区",
		"lon": 121.1,
		"lat": 41.1
	}, {
		"county": "黑山县",
		"lon": 122.12,
		"lat": 41.7
	}, {
		"county": "义县",
		"lon": 121.23,
		"lat": 41.53
	}, {
		"county": "凌海市",
		"lon": 121.35,
		"lat": 41.17
	}, {
		"county": "营口市",
		"lon": 122.23,
		"lat": 40.67
	}, {
		"county": "站前区",
		"lon": 122.27,
		"lat": 40.68
	}, {
		"county": "西市区",
		"lon": 122.22,
		"lat": 40.67
	}, {
		"county": "鲅鱼圈区",
		"lon": 122.12,
		"lat": 40.27
	}, {
		"county": "老边区",
		"lon": 122.37,
		"lat": 40.67
	}, {
		"county": "盖州市",
		"lon": 122.35,
		"lat": 40.4
	}, {
		"county": "大石桥市",
		"lon": 122.5,
		"lat": 40.65
	}, {
		"county": "阜新市",
		"lon": 121.67,
		"lat": 42.02
	}, {
		"county": "海州区",
		"lon": 121.65,
		"lat": 42.02
	}, {
		"county": "太平区",
		"lon": 121.67,
		"lat": 42.02
	}, {
		"county": "清河门区",
		"lon": 121.42,
		"lat": 41.75
	}, {
		"county": "细河区",
		"lon": 121.68,
		"lat": 42.03
	}, {
		"county": "阜新蒙古族自治县",
		"lon": 121.75,
		"lat": 42.07
	}, {
		"county": "彰武县",
		"lon": 122.53,
		"lat": 42.38
	}, {
		"county": "辽阳市",
		"lon": 123.17,
		"lat": 41.27
	}, {
		"county": "白塔区",
		"lon": 123.17,
		"lat": 41.27
	}, {
		"county": "文圣区",
		"lon": 123.18,
		"lat": 41.27
	}, {
		"county": "宏伟区",
		"lon": 123.2,
		"lat": 41.2
	}, {
		"county": "弓长岭区",
		"lon": 123.45,
		"lat": 41.13
	}, {
		"county": "太子河区",
		"lon": 123.18,
		"lat": 41.25
	}, {
		"county": "辽阳县",
		"lon": 123.07,
		"lat": 41.22
	}, {
		"county": "灯塔市",
		"lon": 123.33,
		"lat": 41.42
	}, {
		"county": "盘锦市",
		"lon": 122.07,
		"lat": 41.12
	}, {
		"county": "双台子区",
		"lon": 122.05,
		"lat": 41.2
	}, {
		"county": "兴隆台区",
		"lon": 122.07,
		"lat": 41.12
	}, {
		"county": "大洼县",
		"lon": 122.07,
		"lat": 40.98
	}, {
		"county": "盘山县",
		"lon": 122.02,
		"lat": 41.25
	}, {
		"county": "铁岭市",
		"lon": 123.83,
		"lat": 42.28
	}, {
		"county": "银州区",
		"lon": 123.85,
		"lat": 42.28
	}, {
		"county": "清河区",
		"lon": 124.15,
		"lat": 42.53
	}, {
		"county": "铁岭县",
		"lon": 123.83,
		"lat": 42.3
	}, {
		"county": "西丰县",
		"lon": 124.72,
		"lat": 42.73
	}, {
		"county": "昌图县",
		"lon": 124.1,
		"lat": 42.78
	}, {
		"county": "调兵山市",
		"lon": 123.55,
		"lat": 42.47
	}, {
		"county": "开原市",
		"lon": 124.03,
		"lat": 42.55
	}, {
		"county": "朝阳市",
		"lon": 120.45,
		"lat": 41.57
	}, {
		"county": "双塔区",
		"lon": 120.45,
		"lat": 41.57
	}, {
		"county": "龙城区",
		"lon": 120.43,
		"lat": 41.6
	}, {
		"county": "朝阳县",
		"lon": 120.47,
		"lat": 41.58
	}, {
		"county": "建平县",
		"lon": 119.63,
		"lat": 41.4
	}, {
		"county": "北票市",
		"lon": 120.77,
		"lat": 41.8
	}, {
		"county": "凌源市",
		"lon": 119.4,
		"lat": 41.25
	}, {
		"county": "葫芦岛市",
		"lon": 120.83,
		"lat": 40.72
	}, {
		"county": "连山区",
		"lon": 120.87,
		"lat": 40.77
	}, {
		"county": "龙港区",
		"lon": 120.93,
		"lat": 40.72
	}, {
		"county": "南票区",
		"lon": 120.75,
		"lat": 41.1
	}, {
		"county": "绥中县",
		"lon": 120.33,
		"lat": 40.32
	}, {
		"county": "建昌县",
		"lon": 119.8,
		"lat": 40.82
	}, {
		"county": "兴城市",
		"lon": 120.72,
		"lat": 40.62
	}, {
		"county": "长春市",
		"lon": 125.32,
		"lat": 43.9
	}, {
		"county": "南关区",
		"lon": 125.33,
		"lat": 43.87
	}, {
		"county": "宽城区",
		"lon": 125.32,
		"lat": 43.92
	}, {
		"county": "朝阳区",
		"lon": 125.28,
		"lat": 43.83
	}, {
		"county": "二道区",
		"lon": 125.37,
		"lat": 43.87
	}, {
		"county": "绿园区",
		"lon": 125.25,
		"lat": 43.88
	}, {
		"county": "双阳区",
		"lon": 125.67,
		"lat": 43.52
	}, {
		"county": "农安县",
		"lon": 125.18,
		"lat": 44.43
	}, {
		"county": "九台市",
		"lon": 125.83,
		"lat": 44.15
	}, {
		"county": "榆树市",
		"lon": 126.55,
		"lat": 44.82
	}, {
		"county": "德惠市",
		"lon": 125.7,
		"lat": 44.53
	}, {
		"county": "吉林市",
		"lon": 126.55,
		"lat": 43.83
	}, {
		"county": "昌邑区",
		"lon": 126.57,
		"lat": 43.88
	}, {
		"county": "龙潭区",
		"lon": 126.57,
		"lat": 43.92
	}, {
		"county": "船营区",
		"lon": 126.53,
		"lat": 43.83
	}, {
		"county": "丰满区",
		"lon": 126.57,
		"lat": 43.82
	}, {
		"county": "永吉县",
		"lon": 126.5,
		"lat": 43.67
	}, {
		"county": "蛟河市",
		"lon": 127.33,
		"lat": 43.72
	}, {
		"county": "桦甸市",
		"lon": 126.73,
		"lat": 42.97
	}, {
		"county": "舒兰市",
		"lon": 126.95,
		"lat": 44.42
	}, {
		"county": "磐石市",
		"lon": 126.05,
		"lat": 42.95
	}, {
		"county": "四平市",
		"lon": 124.35,
		"lat": 43.17
	}, {
		"county": "铁西区",
		"lon": 124.35,
		"lat": 43.15
	}, {
		"county": "铁东区",
		"lon": 124.38,
		"lat": 43.17
	}, {
		"county": "梨树县",
		"lon": 124.33,
		"lat": 43.32
	}, {
		"county": "伊通满族自治县",
		"lon": 125.3,
		"lat": 43.35
	}, {
		"county": "公主岭市",
		"lon": 124.82,
		"lat": 43.5
	}, {
		"county": "双辽市",
		"lon": 123.5,
		"lat": 43.52
	}, {
		"county": "辽源市",
		"lon": 125.13,
		"lat": 42.88
	}, {
		"county": "龙山区",
		"lon": 125.12,
		"lat": 42.9
	}, {
		"county": "西安区",
		"lon": 125.15,
		"lat": 42.92
	}, {
		"county": "东丰县",
		"lon": 125.53,
		"lat": 42.68
	}, {
		"county": "东辽县",
		"lon": 125.0,
		"lat": 42.92
	}, {
		"county": "通化市",
		"lon": 125.93,
		"lat": 41.73
	}, {
		"county": "东昌区",
		"lon": 125.95,
		"lat": 41.73
	}, {
		"county": "二道江区",
		"lon": 126.03,
		"lat": 41.77
	}, {
		"county": "通化县",
		"lon": 125.75,
		"lat": 41.68
	}, {
		"county": "辉南县",
		"lon": 126.03,
		"lat": 42.68
	}, {
		"county": "柳河县",
		"lon": 125.73,
		"lat": 42.28
	}, {
		"county": "梅河口市",
		"lon": 125.68,
		"lat": 42.53
	}, {
		"county": "集安市",
		"lon": 126.18,
		"lat": 41.12
	}, {
		"county": "白山市",
		"lon": 126.42,
		"lat": 41.93
	}, {
		"county": "八道江区",
		"lon": 126.4,
		"lat": 41.93
	}, {
		"county": "抚松县",
		"lon": 127.28,
		"lat": 42.33
	}, {
		"county": "靖宇县",
		"lon": 126.8,
		"lat": 42.4
	}, {
		"county": "长白朝鲜族自治县",
		"lon": 128.2,
		"lat": 41.42
	}, {
		"county": "临江市",
		"lon": 126.9,
		"lat": 41.8
	}, {
		"county": "松原市",
		"lon": 124.82,
		"lat": 45.13
	}, {
		"county": "宁江区",
		"lon": 124.8,
		"lat": 45.17
	}, {
		"county": "长岭县",
		"lon": 123.98,
		"lat": 44.28
	}, {
		"county": "乾安县",
		"lon": 124.02,
		"lat": 45.02
	}, {
		"county": "扶余县",
		"lon": 126.02,
		"lat": 44.98
	}, {
		"county": "白城市",
		"lon": 122.83,
		"lat": 45.62
	}, {
		"county": "洮北区",
		"lon": 122.85,
		"lat": 45.62
	}, {
		"county": "镇赉县",
		"lon": 123.2,
		"lat": 45.85
	}, {
		"county": "通榆县",
		"lon": 123.08,
		"lat": 44.82
	}, {
		"county": "洮南市",
		"lon": 122.78,
		"lat": 45.33
	}, {
		"county": "大安市",
		"lon": 124.28,
		"lat": 45.5
	}, {
		"county": "延边朝鲜族自治州",
		"lon": 129.5,
		"lat": 42.88
	}, {
		"county": "延吉市",
		"lon": 129.5,
		"lat": 42.88
	}, {
		"county": "图们市",
		"lon": 129.83,
		"lat": 42.97
	}, {
		"county": "敦化市",
		"lon": 128.23,
		"lat": 43.37
	}, {
		"county": "珲春市",
		"lon": 130.37,
		"lat": 42.87
	}, {
		"county": "龙井市",
		"lon": 129.42,
		"lat": 42.77
	}, {
		"county": "和龙市",
		"lon": 129.0,
		"lat": 42.53
	}, {
		"county": "汪清县",
		"lon": 129.75,
		"lat": 43.32
	}, {
		"county": "安图县",
		"lon": 128.9,
		"lat": 43.12
	}, {
		"county": "哈尔滨市",
		"lon": 126.53,
		"lat": 45.8
	}, {
		"county": "道里区",
		"lon": 126.62,
		"lat": 45.77
	}, {
		"county": "南岗区",
		"lon": 126.68,
		"lat": 45.77
	}, {
		"county": "道外区",
		"lon": 126.65,
		"lat": 45.78
	}, {
		"county": "香坊区",
		"lon": 126.68,
		"lat": 45.72
	}, {
		"county": "平房区",
		"lon": 126.62,
		"lat": 45.62
	}, {
		"county": "松北区",
		"lon": 126.55,
		"lat": 45.8
	}, {
		"county": "呼兰区",
		"lon": 126.58,
		"lat": 45.9
	}, {
		"county": "依兰县",
		"lon": 129.55,
		"lat": 46.32
	}, {
		"county": "方正县",
		"lon": 128.83,
		"lat": 45.83
	}, {
		"county": "宾县",
		"lon": 127.48,
		"lat": 45.75
	}, {
		"county": "巴彦县",
		"lon": 127.4,
		"lat": 46.08
	}, {
		"county": "木兰县",
		"lon": 128.03,
		"lat": 45.95
	}, {
		"county": "通河县",
		"lon": 128.75,
		"lat": 45.97
	}, {
		"county": "延寿县",
		"lon": 128.33,
		"lat": 45.45
	}, {
		"county": "双城市",
		"lon": 126.32,
		"lat": 45.37
	}, {
		"county": "尚志市",
		"lon": 127.95,
		"lat": 45.22
	}, {
		"county": "五常市",
		"lon": 127.15,
		"lat": 44.92
	}, {
		"county": "齐齐哈尔市",
		"lon": 123.95,
		"lat": 47.33
	}, {
		"county": "龙沙区",
		"lon": 123.95,
		"lat": 47.32
	}, {
		"county": "建华区",
		"lon": 123.95,
		"lat": 47.35
	}, {
		"county": "铁锋区",
		"lon": 123.98,
		"lat": 47.35
	}, {
		"county": "昂昂溪区",
		"lon": 123.8,
		"lat": 47.15
	}, {
		"county": "富拉尔基区",
		"lon": 123.62,
		"lat": 47.2
	}, {
		"county": "龙江县",
		"lon": 123.18,
		"lat": 47.33
	}, {
		"county": "依安县",
		"lon": 125.3,
		"lat": 47.88
	}, {
		"county": "泰来县",
		"lon": 123.42,
		"lat": 46.4
	}, {
		"county": "甘南县",
		"lon": 123.5,
		"lat": 47.92
	}, {
		"county": "富裕县",
		"lon": 124.47,
		"lat": 47.82
	}, {
		"county": "克山县",
		"lon": 125.87,
		"lat": 48.03
	}, {
		"county": "克东县",
		"lon": 126.25,
		"lat": 48.03
	}, {
		"county": "拜泉县",
		"lon": 126.08,
		"lat": 47.6
	}, {
		"county": "讷河市",
		"lon": 124.87,
		"lat": 48.48
	}, {
		"county": "鸡西市",
		"lon": 130.97,
		"lat": 45.3
	}, {
		"county": "鸡冠区",
		"lon": 130.97,
		"lat": 45.3
	}, {
		"county": "恒山区",
		"lon": 130.93,
		"lat": 45.2
	}, {
		"county": "滴道区",
		"lon": 130.78,
		"lat": 45.37
	}, {
		"county": "梨树区",
		"lon": 130.68,
		"lat": 45.08
	}, {
		"county": "城子河区",
		"lon": 131.0,
		"lat": 45.33
	}, {
		"county": "麻山区",
		"lon": 130.52,
		"lat": 45.2
	}, {
		"county": "鸡东县",
		"lon": 131.13,
		"lat": 45.25
	}, {
		"county": "虎林市",
		"lon": 132.98,
		"lat": 45.77
	}, {
		"county": "密山市",
		"lon": 131.87,
		"lat": 45.55
	}, {
		"county": "鹤岗市",
		"lon": 130.27,
		"lat": 47.33
	}, {
		"county": "向阳区",
		"lon": 130.28,
		"lat": 47.33
	}, {
		"county": "向阳区",
		"lon": 130.33,
		"lat": 46.8
	}, {
		"county": "工农区",
		"lon": 130.25,
		"lat": 47.32
	}, {
		"county": "南山区",
		"lon": 130.28,
		"lat": 47.3
	}, {
		"county": "兴安区",
		"lon": 130.22,
		"lat": 47.27
	}, {
		"county": "东山区",
		"lon": 130.32,
		"lat": 47.33
	}, {
		"county": "兴山区",
		"lon": 130.3,
		"lat": 47.37
	}, {
		"county": "萝北县",
		"lon": 130.83,
		"lat": 47.58
	}, {
		"county": "绥滨县",
		"lon": 131.85,
		"lat": 47.28
	}, {
		"county": "双鸭山市",
		"lon": 131.15,
		"lat": 46.63
	}, {
		"county": "尖山区",
		"lon": 131.17,
		"lat": 46.63
	}, {
		"county": "岭东区",
		"lon": 131.13,
		"lat": 46.57
	}, {
		"county": "四方台区",
		"lon": 131.33,
		"lat": 46.58
	}, {
		"county": "宝山区",
		"lon": 131.4,
		"lat": 46.57
	}, {
		"county": "集贤县",
		"lon": 131.13,
		"lat": 46.72
	}, {
		"county": "友谊县",
		"lon": 131.8,
		"lat": 46.78
	}, {
		"county": "宝清县",
		"lon": 132.2,
		"lat": 46.32
	}, {
		"county": "饶河县",
		"lon": 134.02,
		"lat": 46.8
	}, {
		"county": "大庆市",
		"lon": 125.03,
		"lat": 46.58
	}, {
		"county": "萨尔图区",
		"lon": 125.02,
		"lat": 46.6
	}, {
		"county": "龙凤区",
		"lon": 125.1,
		"lat": 46.53
	}, {
		"county": "让胡路区",
		"lon": 124.85,
		"lat": 46.65
	}, {
		"county": "红岗区",
		"lon": 124.88,
		"lat": 46.4
	}, {
		"county": "大同区",
		"lon": 124.82,
		"lat": 46.03
	}, {
		"county": "肇州县",
		"lon": 125.27,
		"lat": 45.7
	}, {
		"county": "肇源县",
		"lon": 125.08,
		"lat": 45.52
	}, {
		"county": "林甸县",
		"lon": 124.87,
		"lat": 47.18
	}, {
		"county": "杜尔伯特蒙古族自治县",
		"lon": 124.45,
		"lat": 46.87
	}, {
		"county": "伊春市",
		"lon": 128.9,
		"lat": 47.73
	}, {
		"county": "南岔区",
		"lon": 129.28,
		"lat": 47.13
	}, {
		"county": "友好区",
		"lon": 128.82,
		"lat": 47.85
	}, {
		"county": "西林区",
		"lon": 129.28,
		"lat": 47.48
	}, {
		"county": "翠峦区",
		"lon": 128.65,
		"lat": 47.72
	}, {
		"county": "新青区",
		"lon": 129.53,
		"lat": 48.28
	}, {
		"county": "美溪区",
		"lon": 129.13,
		"lat": 47.63
	}, {
		"county": "金山屯区",
		"lon": 129.43,
		"lat": 47.42
	}, {
		"county": "五营区",
		"lon": 129.25,
		"lat": 48.12
	}, {
		"county": "乌马河区",
		"lon": 128.78,
		"lat": 47.72
	}, {
		"county": "汤旺河区",
		"lon": 129.57,
		"lat": 48.45
	}, {
		"county": "带岭区",
		"lon": 129.02,
		"lat": 47.02
	}, {
		"county": "乌伊岭区",
		"lon": 129.42,
		"lat": 48.6
	}, {
		"county": "红星区",
		"lon": 129.38,
		"lat": 48.23
	}, {
		"county": "上甘岭区",
		"lon": 129.02,
		"lat": 47.97
	}, {
		"county": "嘉荫县",
		"lon": 130.38,
		"lat": 48.88
	}, {
		"county": "铁力市",
		"lon": 128.02,
		"lat": 46.98
	}, {
		"county": "佳木斯市",
		"lon": 130.37,
		"lat": 46.82
	}, {
		"county": "向阳区",
		"lon": 130.28,
		"lat": 47.33
	}, {
		"county": "向阳区",
		"lon": 130.33,
		"lat": 46.8
	}, {
		"county": "前进区",
		"lon": 130.37,
		"lat": 46.82
	}, {
		"county": "东风区",
		"lon": 130.4,
		"lat": 46.82
	}, {
		"county": "郊区",
		"lon": 130.32,
		"lat": 46.8
	}, {
		"county": "桦南县",
		"lon": 130.57,
		"lat": 46.23
	}, {
		"county": "桦川县",
		"lon": 130.72,
		"lat": 47.02
	}, {
		"county": "汤原县",
		"lon": 129.9,
		"lat": 46.73
	}, {
		"county": "抚远县",
		"lon": 134.28,
		"lat": 48.37
	}, {
		"county": "同江市",
		"lon": 132.52,
		"lat": 47.65
	}, {
		"county": "富锦市",
		"lon": 132.03,
		"lat": 47.25
	}, {
		"county": "七台河市",
		"lon": 130.95,
		"lat": 45.78
	}, {
		"county": "新兴区",
		"lon": 130.83,
		"lat": 45.8
	}, {
		"county": "桃山区",
		"lon": 130.97,
		"lat": 45.77
	}, {
		"county": "茄子河区",
		"lon": 131.07,
		"lat": 45.77
	}, {
		"county": "勃利县",
		"lon": 130.57,
		"lat": 45.75
	}, {
		"county": "牡丹江市",
		"lon": 129.6,
		"lat": 44.58
	}, {
		"county": "东安区",
		"lon": 129.62,
		"lat": 44.58
	}, {
		"county": "阳明区",
		"lon": 129.63,
		"lat": 44.6
	}, {
		"county": "爱民区",
		"lon": 129.58,
		"lat": 44.58
	}, {
		"county": "西安区",
		"lon": 129.62,
		"lat": 44.57
	}, {
		"county": "东宁县",
		"lon": 131.12,
		"lat": 44.07
	}, {
		"county": "林口县",
		"lon": 130.27,
		"lat": 45.3
	}, {
		"county": "绥芬河市",
		"lon": 131.15,
		"lat": 44.42
	}, {
		"county": "海林市",
		"lon": 129.38,
		"lat": 44.57
	}, {
		"county": "宁安市",
		"lon": 129.47,
		"lat": 44.35
	}, {
		"county": "穆棱市",
		"lon": 130.52,
		"lat": 44.92
	}, {
		"county": "黑河市",
		"lon": 127.48,
		"lat": 50.25
	}, {
		"county": "爱辉区",
		"lon": 127.48,
		"lat": 50.25
	}, {
		"county": "逊克县",
		"lon": 128.47,
		"lat": 49.58
	}, {
		"county": "孙吴县",
		"lon": 127.32,
		"lat": 49.42
	}, {
		"county": "北安市",
		"lon": 126.52,
		"lat": 48.23
	}, {
		"county": "五大连池市",
		"lon": 126.2,
		"lat": 48.52
	}, {
		"county": "绥化市",
		"lon": 126.98,
		"lat": 46.63
	}, {
		"county": "北林区",
		"lon": 126.98,
		"lat": 46.63
	}, {
		"county": "望奎县",
		"lon": 126.48,
		"lat": 46.83
	}, {
		"county": "兰西县",
		"lon": 126.28,
		"lat": 46.27
	}, {
		"county": "青冈县",
		"lon": 126.1,
		"lat": 46.68
	}, {
		"county": "庆安县",
		"lon": 127.52,
		"lat": 46.88
	}, {
		"county": "明水县",
		"lon": 125.9,
		"lat": 47.18
	}, {
		"county": "绥棱县",
		"lon": 127.1,
		"lat": 47.25
	}, {
		"county": "安达市",
		"lon": 125.33,
		"lat": 46.4
	}, {
		"county": "肇东市",
		"lon": 125.98,
		"lat": 46.07
	}, {
		"county": "海伦市",
		"lon": 126.97,
		"lat": 47.47
	}, {
		"county": "大兴安岭地区",
		"lon": 124.12,
		"lat": 50.42
	}, {
		"county": "呼玛县",
		"lon": 126.65,
		"lat": 51.73
	}, {
		"county": "塔河县",
		"lon": 124.7,
		"lat": 52.32
	}, {
		"county": "漠河县",
		"lon": 122.53,
		"lat": 52.97
	}, {
		"county": "上海市",
		"lon": 121.47,
		"lat": 31.23
	}, {
		"county": "黄浦区",
		"lon": 121.48,
		"lat": 31.23
	}, {
		"county": "卢湾区",
		"lon": 121.47,
		"lat": 31.22
	}, {
		"county": "徐汇区",
		"lon": 121.43,
		"lat": 31.18
	}, {
		"county": "长宁区",
		"lon": 121.42,
		"lat": 31.22
	}, {
		"county": "静安区",
		"lon": 121.45,
		"lat": 31.23
	}, {
		"county": "普陀区",
		"lon": 121.4,
		"lat": 31.25
	}, {
		"county": "闸北区",
		"lon": 121.45,
		"lat": 31.25
	}, {
		"county": "虹口区",
		"lon": 121.5,
		"lat": 31.27
	}, {
		"county": "杨浦区",
		"lon": 121.52,
		"lat": 31.27
	}, {
		"county": "闵行区",
		"lon": 121.38,
		"lat": 31.12
	}, {
		"county": "宝山区",
		"lon": 121.48,
		"lat": 31.4
	}, {
		"county": "嘉定区",
		"lon": 121.27,
		"lat": 31.38
	}, {
		"county": "浦东新区",
		"lon": 121.53,
		"lat": 31.22
	}, {
		"county": "金山区",
		"lon": 121.33,
		"lat": 30.75
	}, {
		"county": "松江区",
		"lon": 121.22,
		"lat": 31.03
	}, {
		"county": "青浦区",
		"lon": 121.12,
		"lat": 31.15
	}, {
		"county": "南汇区",
		"lon": 121.75,
		"lat": 31.05
	}, {
		"county": "奉贤区",
		"lon": 121.47,
		"lat": 30.92
	}, {
		"county": "崇明县",
		"lon": 121.4,
		"lat": 31.62
	}, {
		"county": "南京市",
		"lon": 118.78,
		"lat": 32.07
	}, {
		"county": "玄武区",
		"lon": 118.8,
		"lat": 32.05
	}, {
		"county": "白下区",
		"lon": 118.78,
		"lat": 32.03
	}, {
		"county": "秦淮区",
		"lon": 118.8,
		"lat": 32.02
	}, {
		"county": "建邺区",
		"lon": 118.75,
		"lat": 32.03
	}, {
		"county": "鼓楼区",
		"lon": 117.18,
		"lat": 34.28
	}, {
		"county": "鼓楼区",
		"lon": 118.77,
		"lat": 32.07
	}, {
		"county": "下关区",
		"lon": 118.73,
		"lat": 32.08
	}, {
		"county": "浦口区",
		"lon": 118.62,
		"lat": 32.05
	}, {
		"county": "栖霞区",
		"lon": 118.88,
		"lat": 32.12
	}, {
		"county": "雨花台区",
		"lon": 118.77,
		"lat": 32.0
	}, {
		"county": "江宁区",
		"lon": 118.85,
		"lat": 31.95
	}, {
		"county": "六合区",
		"lon": 118.83,
		"lat": 32.35
	}, {
		"county": "溧水县",
		"lon": 119.02,
		"lat": 31.65
	}, {
		"county": "高淳县",
		"lon": 118.88,
		"lat": 31.33
	}, {
		"county": "无锡市",
		"lon": 120.3,
		"lat": 31.57
	}, {
		"county": "崇安区",
		"lon": 120.3,
		"lat": 31.58
	}, {
		"county": "南长区",
		"lon": 120.3,
		"lat": 31.57
	}, {
		"county": "北塘区",
		"lon": 120.28,
		"lat": 31.58
	}, {
		"county": "锡山区",
		"lon": 120.35,
		"lat": 31.6
	}, {
		"county": "惠山区",
		"lon": 120.28,
		"lat": 31.68
	}, {
		"county": "滨湖区",
		"lon": 120.27,
		"lat": 31.57
	}, {
		"county": "江阴市",
		"lon": 120.27,
		"lat": 31.9
	}, {
		"county": "宜兴市",
		"lon": 119.82,
		"lat": 31.35
	}, {
		"county": "徐州市",
		"lon": 117.18,
		"lat": 34.27
	}, {
		"county": "鼓楼区",
		"lon": 117.18,
		"lat": 34.28
	}, {
		"county": "鼓楼区",
		"lon": 118.77,
		"lat": 32.07
	}, {
		"county": "云龙区",
		"lon": 117.22,
		"lat": 34.25
	}, {
		"county": "九里区",
		"lon": 117.13,
		"lat": 34.3
	}, {
		"county": "贾汪区",
		"lon": 117.45,
		"lat": 34.45
	}, {
		"county": "泉山区",
		"lon": 117.18,
		"lat": 34.25
	}, {
		"county": "丰县",
		"lon": 116.6,
		"lat": 34.7
	}, {
		"county": "沛县",
		"lon": 116.93,
		"lat": 34.73
	}, {
		"county": "铜山县",
		"lon": 117.17,
		"lat": 34.18
	}, {
		"county": "睢宁县",
		"lon": 117.95,
		"lat": 33.9
	}, {
		"county": "新沂市",
		"lon": 118.35,
		"lat": 34.38
	}, {
		"county": "邳州市",
		"lon": 117.95,
		"lat": 34.32
	}, {
		"county": "常州市",
		"lon": 119.95,
		"lat": 31.78
	}, {
		"county": "天宁区",
		"lon": 119.93,
		"lat": 31.75
	}, {
		"county": "钟楼区",
		"lon": 119.93,
		"lat": 31.78
	}, {
		"county": "戚墅堰区",
		"lon": 120.05,
		"lat": 31.73
	}, {
		"county": "新北区",
		"lon": 119.97,
		"lat": 31.83
	}, {
		"county": "武进区",
		"lon": 119.93,
		"lat": 31.72
	}, {
		"county": "溧阳市",
		"lon": 119.48,
		"lat": 31.42
	}, {
		"county": "金坛市",
		"lon": 119.57,
		"lat": 31.75
	}, {
		"county": "苏州市",
		"lon": 120.58,
		"lat": 31.3
	}, {
		"county": "沧浪区",
		"lon": 120.63,
		"lat": 31.3
	}, {
		"county": "平江区",
		"lon": 120.63,
		"lat": 31.32
	}, {
		"county": "金阊区",
		"lon": 120.6,
		"lat": 31.32
	}, {
		"county": "虎丘区",
		"lon": 120.57,
		"lat": 31.3
	}, {
		"county": "吴中区",
		"lon": 120.63,
		"lat": 31.27
	}, {
		"county": "相城区",
		"lon": 120.63,
		"lat": 31.37
	}, {
		"county": "常熟市",
		"lon": 120.75,
		"lat": 31.65
	}, {
		"county": "张家港市",
		"lon": 120.55,
		"lat": 31.87
	}, {
		"county": "昆山市",
		"lon": 120.98,
		"lat": 31.38
	}, {
		"county": "吴江市",
		"lon": 120.63,
		"lat": 31.17
	}, {
		"county": "太仓市",
		"lon": 121.1,
		"lat": 31.45
	}, {
		"county": "南通市",
		"lon": 120.88,
		"lat": 31.98
	}, {
		"county": "崇川区",
		"lon": 120.85,
		"lat": 32.0
	}, {
		"county": "港闸区",
		"lon": 120.8,
		"lat": 32.03
	}, {
		"county": "海安县",
		"lon": 120.45,
		"lat": 32.55
	}, {
		"county": "如东县",
		"lon": 121.18,
		"lat": 32.32
	}, {
		"county": "启东市",
		"lon": 121.65,
		"lat": 31.82
	}, {
		"county": "如皋市",
		"lon": 120.57,
		"lat": 32.4
	}, {
		"county": "通州市",
		"lon": 121.07,
		"lat": 32.08
	}, {
		"county": "海门市",
		"lon": 121.17,
		"lat": 31.9
	}, {
		"county": "连云港市",
		"lon": 119.22,
		"lat": 34.6
	}, {
		"county": "连云区",
		"lon": 119.37,
		"lat": 34.75
	}, {
		"county": "新浦区",
		"lon": 119.17,
		"lat": 34.6
	}, {
		"county": "海州区",
		"lon": 119.12,
		"lat": 34.57
	}, {
		"county": "赣榆县",
		"lon": 119.12,
		"lat": 34.83
	}, {
		"county": "东海县",
		"lon": 118.77,
		"lat": 34.53
	}, {
		"county": "灌云县",
		"lon": 119.25,
		"lat": 34.3
	}, {
		"county": "灌南县",
		"lon": 119.35,
		"lat": 34.08
	}, {
		"county": "淮安市",
		"lon": 119.02,
		"lat": 33.62
	}, {
		"county": "清河区",
		"lon": 119.02,
		"lat": 33.6
	}, {
		"county": "楚州区",
		"lon": 119.13,
		"lat": 33.5
	}, {
		"county": "淮阴区",
		"lon": 119.03,
		"lat": 33.63
	}, {
		"county": "清浦区",
		"lon": 119.03,
		"lat": 33.58
	}, {
		"county": "涟水县",
		"lon": 119.27,
		"lat": 33.78
	}, {
		"county": "洪泽县",
		"lon": 118.83,
		"lat": 33.3
	}, {
		"county": "盱眙县",
		"lon": 118.48,
		"lat": 33.0
	}, {
		"county": "金湖县",
		"lon": 119.02,
		"lat": 33.02
	}, {
		"county": "盐城市",
		"lon": 120.15,
		"lat": 33.35
	}, {
		"county": "亭湖区",
		"lon": 120.13,
		"lat": 33.4
	}, {
		"county": "盐都区",
		"lon": 120.15,
		"lat": 33.33
	}, {
		"county": "响水县",
		"lon": 119.57,
		"lat": 34.2
	}, {
		"county": "滨海县",
		"lon": 119.83,
		"lat": 33.98
	}, {
		"county": "阜宁县",
		"lon": 119.8,
		"lat": 33.78
	}, {
		"county": "射阳县",
		"lon": 120.25,
		"lat": 33.78
	}, {
		"county": "建湖县",
		"lon": 119.8,
		"lat": 33.47
	}, {
		"county": "东台市",
		"lon": 120.3,
		"lat": 32.85
	}, {
		"county": "大丰市",
		"lon": 120.47,
		"lat": 33.2
	}, {
		"county": "扬州市",
		"lon": 119.4,
		"lat": 32.4
	}, {
		"county": "广陵区",
		"lon": 119.43,
		"lat": 32.38
	}, {
		"county": "邗江区",
		"lon": 119.4,
		"lat": 32.38
	}, {
		"county": "维扬区",
		"lon": 119.4,
		"lat": 32.42
	}, {
		"county": "宝应县",
		"lon": 119.3,
		"lat": 33.23
	}, {
		"county": "仪征市",
		"lon": 119.18,
		"lat": 32.27
	}, {
		"county": "高邮市",
		"lon": 119.43,
		"lat": 32.78
	}, {
		"county": "江都市",
		"lon": 119.55,
		"lat": 32.43
	}, {
		"county": "镇江市",
		"lon": 119.45,
		"lat": 32.2
	}, {
		"county": "京口区",
		"lon": 119.47,
		"lat": 32.2
	}, {
		"county": "润州区",
		"lon": 119.4,
		"lat": 32.2
	}, {
		"county": "丹徒区",
		"lon": 119.45,
		"lat": 32.13
	}, {
		"county": "丹阳市",
		"lon": 119.57,
		"lat": 32.0
	}, {
		"county": "扬中市",
		"lon": 119.82,
		"lat": 32.23
	}, {
		"county": "句容市",
		"lon": 119.17,
		"lat": 31.95
	}, {
		"county": "泰州市",
		"lon": 119.92,
		"lat": 32.45
	}, {
		"county": "兴化市",
		"lon": 119.85,
		"lat": 32.92
	}, {
		"county": "靖江市",
		"lon": 120.27,
		"lat": 32.02
	}, {
		"county": "泰兴市",
		"lon": 120.02,
		"lat": 32.17
	}, {
		"county": "姜堰市",
		"lon": 120.15,
		"lat": 32.52
	}, {
		"county": "宿迁市",
		"lon": 118.28,
		"lat": 33.97
	}, {
		"county": "宿城区",
		"lon": 118.25,
		"lat": 33.97
	}, {
		"county": "宿豫区",
		"lon": 118.32,
		"lat": 33.95
	}, {
		"county": "沭阳县",
		"lon": 118.77,
		"lat": 34.13
	}, {
		"county": "泗阳县",
		"lon": 118.68,
		"lat": 33.72
	}, {
		"county": "泗洪县",
		"lon": 118.22,
		"lat": 33.47
	}, {
		"county": "杭州市",
		"lon": 120.15,
		"lat": 30.28
	}, {
		"county": "上城区",
		"lon": 120.17,
		"lat": 30.25
	}, {
		"county": "下城区",
		"lon": 120.17,
		"lat": 30.28
	}, {
		"county": "江干区",
		"lon": 120.2,
		"lat": 30.27
	}, {
		"county": "拱墅区",
		"lon": 120.13,
		"lat": 30.32
	}, {
		"county": "西湖区",
		"lon": 120.13,
		"lat": 30.27
	}, {
		"county": "滨江区",
		"lon": 120.2,
		"lat": 30.2
	}, {
		"county": "萧山区",
		"lon": 120.27,
		"lat": 30.17
	}, {
		"county": "余杭区",
		"lon": 120.3,
		"lat": 30.42
	}, {
		"county": "桐庐县",
		"lon": 119.67,
		"lat": 29.8
	}, {
		"county": "淳安县",
		"lon": 119.03,
		"lat": 29.6
	}, {
		"county": "建德市",
		"lon": 119.28,
		"lat": 29.48
	}, {
		"county": "富阳市",
		"lon": 119.95,
		"lat": 30.05
	}, {
		"county": "临安市",
		"lon": 119.72,
		"lat": 30.23
	}, {
		"county": "宁波市",
		"lon": 121.55,
		"lat": 29.88
	}, {
		"county": "海曙区",
		"lon": 121.55,
		"lat": 29.87
	}, {
		"county": "江东区",
		"lon": 121.57,
		"lat": 29.87
	}, {
		"county": "江北区",
		"lon": 121.55,
		"lat": 29.88
	}, {
		"county": "北仑区",
		"lon": 121.85,
		"lat": 29.93
	}, {
		"county": "镇海区",
		"lon": 121.72,
		"lat": 29.95
	}, {
		"county": "鄞州区",
		"lon": 121.53,
		"lat": 29.83
	}, {
		"county": "象山县",
		"lon": 121.87,
		"lat": 29.48
	}, {
		"county": "宁海县",
		"lon": 121.43,
		"lat": 29.28
	}, {
		"county": "余姚市",
		"lon": 121.15,
		"lat": 30.03
	}, {
		"county": "慈溪市",
		"lon": 121.23,
		"lat": 30.17
	}, {
		"county": "奉化市",
		"lon": 121.4,
		"lat": 29.65
	}, {
		"county": "温州市",
		"lon": 120.7,
		"lat": 28.0
	}, {
		"county": "鹿城区",
		"lon": 120.65,
		"lat": 28.02
	}, {
		"county": "龙湾区",
		"lon": 120.82,
		"lat": 27.93
	}, {
		"county": "洞头县",
		"lon": 121.15,
		"lat": 27.83
	}, {
		"county": "永嘉县",
		"lon": 120.68,
		"lat": 28.15
	}, {
		"county": "平阳县",
		"lon": 120.57,
		"lat": 27.67
	}, {
		"county": "苍南县",
		"lon": 120.4,
		"lat": 27.5
	}, {
		"county": "文成县",
		"lon": 120.08,
		"lat": 27.78
	}, {
		"county": "泰顺县",
		"lon": 119.72,
		"lat": 27.57
	}, {
		"county": "瑞安市",
		"lon": 120.63,
		"lat": 27.78
	}, {
		"county": "乐清市",
		"lon": 120.95,
		"lat": 28.13
	}, {
		"county": "嘉兴市",
		"lon": 120.75,
		"lat": 30.75
	}, {
		"county": "秀洲区",
		"lon": 120.7,
		"lat": 30.77
	}, {
		"county": "嘉善县",
		"lon": 120.92,
		"lat": 30.85
	}, {
		"county": "海盐县",
		"lon": 120.95,
		"lat": 30.53
	}, {
		"county": "海宁市",
		"lon": 120.68,
		"lat": 30.53
	}, {
		"county": "平湖市",
		"lon": 121.02,
		"lat": 30.7
	}, {
		"county": "桐乡市",
		"lon": 120.57,
		"lat": 30.63
	}, {
		"county": "湖州市",
		"lon": 120.08,
		"lat": 30.9
	}, {
		"county": "吴兴区",
		"lon": 120.12,
		"lat": 30.87
	}, {
		"county": "南浔区",
		"lon": 120.43,
		"lat": 30.88
	}, {
		"county": "德清县",
		"lon": 119.97,
		"lat": 30.53
	}, {
		"county": "长兴县",
		"lon": 119.9,
		"lat": 31.02
	}, {
		"county": "安吉县",
		"lon": 119.68,
		"lat": 30.63
	}, {
		"county": "绍兴市",
		"lon": 120.57,
		"lat": 30.0
	}, {
		"county": "越城区",
		"lon": 120.57,
		"lat": 30.0
	}, {
		"county": "绍兴县",
		"lon": 120.47,
		"lat": 30.08
	}, {
		"county": "新昌县",
		"lon": 120.9,
		"lat": 29.5
	}, {
		"county": "诸暨市",
		"lon": 120.23,
		"lat": 29.72
	}, {
		"county": "上虞市",
		"lon": 120.87,
		"lat": 30.03
	}, {
		"county": "嵊州市",
		"lon": 120.82,
		"lat": 29.58
	}, {
		"county": "金华市",
		"lon": 119.65,
		"lat": 29.08
	}, {
		"county": "婺城区",
		"lon": 119.65,
		"lat": 29.08
	}, {
		"county": "金东区",
		"lon": 119.7,
		"lat": 29.08
	}, {
		"county": "武义县",
		"lon": 119.82,
		"lat": 28.9
	}, {
		"county": "浦江县",
		"lon": 119.88,
		"lat": 29.45
	}, {
		"county": "磐安县",
		"lon": 120.43,
		"lat": 29.05
	}, {
		"county": "兰溪市",
		"lon": 119.45,
		"lat": 29.22
	}, {
		"county": "义乌市",
		"lon": 120.07,
		"lat": 29.3
	}, {
		"county": "东阳市",
		"lon": 120.23,
		"lat": 29.28
	}, {
		"county": "永康市",
		"lon": 120.03,
		"lat": 28.9
	}, {
		"county": "衢州市",
		"lon": 118.87,
		"lat": 28.93
	}, {
		"county": "柯城区",
		"lon": 118.87,
		"lat": 28.93
	}, {
		"county": "衢江区",
		"lon": 118.93,
		"lat": 28.98
	}, {
		"county": "常山县",
		"lon": 118.52,
		"lat": 28.9
	}, {
		"county": "开化县",
		"lon": 118.42,
		"lat": 29.13
	}, {
		"county": "龙游县",
		"lon": 119.17,
		"lat": 29.03
	}, {
		"county": "江山市",
		"lon": 118.62,
		"lat": 28.75
	}, {
		"county": "舟山市",
		"lon": 122.2,
		"lat": 30.0
	}, {
		"county": "定海区",
		"lon": 122.1,
		"lat": 30.02
	}, {
		"county": "普陀区",
		"lon": 122.3,
		"lat": 29.95
	}, {
		"county": "岱山县",
		"lon": 122.2,
		"lat": 30.25
	}, {
		"county": "嵊泗县",
		"lon": 122.45,
		"lat": 30.73
	}, {
		"county": "台州市",
		"lon": 121.43,
		"lat": 28.68
	}, {
		"county": "椒江区",
		"lon": 121.43,
		"lat": 28.68
	}, {
		"county": "黄岩区",
		"lon": 121.27,
		"lat": 28.65
	}, {
		"county": "路桥区",
		"lon": 121.38,
		"lat": 28.58
	}, {
		"county": "玉环县",
		"lon": 121.23,
		"lat": 28.13
	}, {
		"county": "三门县",
		"lon": 121.38,
		"lat": 29.12
	}, {
		"county": "天台县",
		"lon": 121.03,
		"lat": 29.13
	}, {
		"county": "仙居县",
		"lon": 120.73,
		"lat": 28.87
	}, {
		"county": "温岭市",
		"lon": 121.37,
		"lat": 28.37
	}, {
		"county": "临海市",
		"lon": 121.12,
		"lat": 28.85
	}, {
		"county": "丽水市",
		"lon": 119.92,
		"lat": 28.45
	}, {
		"county": "莲都区",
		"lon": 119.92,
		"lat": 28.45
	}, {
		"county": "青田县",
		"lon": 120.28,
		"lat": 28.15
	}, {
		"county": "缙云县",
		"lon": 120.07,
		"lat": 28.65
	}, {
		"county": "遂昌县",
		"lon": 119.27,
		"lat": 28.6
	}, {
		"county": "松阳县",
		"lon": 119.48,
		"lat": 28.45
	}, {
		"county": "云和县",
		"lon": 119.57,
		"lat": 28.12
	}, {
		"county": "庆元县",
		"lon": 119.05,
		"lat": 27.62
	}, {
		"county": "景宁畲族自治县",
		"lon": 119.63,
		"lat": 27.98
	}, {
		"county": "龙泉市",
		"lon": 119.13,
		"lat": 28.08
	}, {
		"county": "合肥市",
		"lon": 117.25,
		"lat": 31.83
	}, {
		"county": "瑶海区",
		"lon": 117.3,
		"lat": 31.87
	}, {
		"county": "庐阳区",
		"lon": 117.25,
		"lat": 31.88
	}, {
		"county": "蜀山区",
		"lon": 117.27,
		"lat": 31.85
	}, {
		"county": "包河区",
		"lon": 117.3,
		"lat": 31.8
	}, {
		"county": "长丰县",
		"lon": 117.17,
		"lat": 32.48
	}, {
		"county": "肥东县",
		"lon": 117.47,
		"lat": 31.88
	}, {
		"county": "肥西县",
		"lon": 117.17,
		"lat": 31.72
	}, {
		"county": "芜湖市",
		"lon": 118.38,
		"lat": 31.33
	}, {
		"county": "镜湖区",
		"lon": 118.37,
		"lat": 31.35
	}, {
		"county": "鸠江区",
		"lon": 118.38,
		"lat": 31.37
	}, {
		"county": "芜湖县",
		"lon": 118.57,
		"lat": 31.15
	}, {
		"county": "繁昌县",
		"lon": 118.2,
		"lat": 31.08
	}, {
		"county": "南陵县",
		"lon": 118.33,
		"lat": 30.92
	}, {
		"county": "蚌埠市",
		"lon": 117.38,
		"lat": 32.92
	}, {
		"county": "龙子湖区",
		"lon": 117.38,
		"lat": 32.95
	}, {
		"county": "蚌山区",
		"lon": 117.35,
		"lat": 32.95
	}, {
		"county": "禹会区",
		"lon": 117.33,
		"lat": 32.93
	}, {
		"county": "淮上区",
		"lon": 117.35,
		"lat": 32.97
	}, {
		"county": "怀远县",
		"lon": 117.18,
		"lat": 32.97
	}, {
		"county": "五河县",
		"lon": 117.88,
		"lat": 33.15
	}, {
		"county": "固镇县",
		"lon": 117.32,
		"lat": 33.32
	}, {
		"county": "淮南市",
		"lon": 117.0,
		"lat": 32.63
	}, {
		"county": "大通区",
		"lon": 117.05,
		"lat": 32.63
	}, {
		"county": "田家庵区",
		"lon": 117.0,
		"lat": 32.67
	}, {
		"county": "谢家集区",
		"lon": 116.85,
		"lat": 32.6
	}, {
		"county": "八公山区",
		"lon": 116.83,
		"lat": 32.63
	}, {
		"county": "潘集区",
		"lon": 116.82,
		"lat": 32.78
	}, {
		"county": "凤台县",
		"lon": 116.72,
		"lat": 32.7
	}, {
		"county": "马鞍山市",
		"lon": 118.5,
		"lat": 31.7
	}, {
		"county": "金家庄区",
		"lon": 118.48,
		"lat": 31.73
	}, {
		"county": "花山区",
		"lon": 118.5,
		"lat": 31.72
	}, {
		"county": "雨山区",
		"lon": 118.48,
		"lat": 31.68
	}, {
		"county": "当涂县",
		"lon": 118.48,
		"lat": 31.55
	}, {
		"county": "淮北市",
		"lon": 116.8,
		"lat": 33.95
	}, {
		"county": "杜集区",
		"lon": 116.82,
		"lat": 34.0
	}, {
		"county": "相山区",
		"lon": 116.8,
		"lat": 33.95
	}, {
		"county": "烈山区",
		"lon": 116.8,
		"lat": 33.9
	}, {
		"county": "濉溪县",
		"lon": 116.77,
		"lat": 33.92
	}, {
		"county": "铜陵市",
		"lon": 117.82,
		"lat": 30.93
	}, {
		"county": "铜官山区",
		"lon": 117.82,
		"lat": 30.93
	}, {
		"county": "狮子山区",
		"lon": 117.85,
		"lat": 30.95
	}, {
		"county": "郊区",
		"lon": 117.78,
		"lat": 30.92
	}, {
		"county": "铜陵县",
		"lon": 117.78,
		"lat": 30.95
	}, {
		"county": "安庆市",
		"lon": 117.05,
		"lat": 30.53
	}, {
		"county": "迎江区",
		"lon": 117.05,
		"lat": 30.5
	}, {
		"county": "大观区",
		"lon": 117.03,
		"lat": 30.52
	}, {
		"county": "郊区",
		"lon": 117.78,
		"lat": 30.92
	}, {
		"county": "怀宁县",
		"lon": 116.83,
		"lat": 30.72
	}, {
		"county": "枞阳县",
		"lon": 117.2,
		"lat": 30.7
	}, {
		"county": "潜山县",
		"lon": 116.57,
		"lat": 30.63
	}, {
		"county": "太湖县",
		"lon": 116.27,
		"lat": 30.43
	}, {
		"county": "宿松县",
		"lon": 116.12,
		"lat": 30.15
	}, {
		"county": "望江县",
		"lon": 116.68,
		"lat": 30.13
	}, {
		"county": "岳西县",
		"lon": 116.35,
		"lat": 30.85
	}, {
		"county": "桐城市",
		"lon": 116.95,
		"lat": 31.05
	}, {
		"county": "黄山市",
		"lon": 118.33,
		"lat": 29.72
	}, {
		"county": "屯溪区",
		"lon": 118.33,
		"lat": 29.72
	}, {
		"county": "黄山区",
		"lon": 118.13,
		"lat": 30.3
	}, {
		"county": "徽州区",
		"lon": 118.33,
		"lat": 29.82
	}, {
		"county": "歙县",
		"lon": 118.43,
		"lat": 29.87
	}, {
		"county": "休宁县",
		"lon": 118.18,
		"lat": 29.78
	}, {
		"county": "黟县",
		"lon": 117.93,
		"lat": 29.93
	}, {
		"county": "祁门县",
		"lon": 117.72,
		"lat": 29.87
	}, {
		"county": "滁州市",
		"lon": 118.32,
		"lat": 32.3
	}, {
		"county": "琅琊区",
		"lon": 118.3,
		"lat": 32.3
	}, {
		"county": "南谯区",
		"lon": 118.3,
		"lat": 32.32
	}, {
		"county": "来安县",
		"lon": 118.43,
		"lat": 32.45
	}, {
		"county": "全椒县",
		"lon": 118.27,
		"lat": 32.1
	}, {
		"county": "定远县",
		"lon": 117.67,
		"lat": 32.53
	}, {
		"county": "凤阳县",
		"lon": 117.57,
		"lat": 32.87
	}, {
		"county": "天长市",
		"lon": 119.0,
		"lat": 32.7
	}, {
		"county": "明光市",
		"lon": 117.98,
		"lat": 32.78
	}, {
		"county": "阜阳市",
		"lon": 115.82,
		"lat": 32.9
	}, {
		"county": "颍州区",
		"lon": 115.8,
		"lat": 32.88
	}, {
		"county": "颍东区",
		"lon": 115.85,
		"lat": 32.92
	}, {
		"county": "颍泉区",
		"lon": 115.8,
		"lat": 32.93
	}, {
		"county": "临泉县",
		"lon": 115.25,
		"lat": 33.07
	}, {
		"county": "太和县",
		"lon": 115.62,
		"lat": 33.17
	}, {
		"county": "阜南县",
		"lon": 115.58,
		"lat": 32.63
	}, {
		"county": "颍上县",
		"lon": 116.27,
		"lat": 32.63
	}, {
		"county": "宿州市",
		"lon": 116.98,
		"lat": 33.63
	}, {
		"county": "埇桥区",
		"lon": 116.97,
		"lat": 33.63
	}, {
		"county": "砀山县",
		"lon": 116.35,
		"lat": 34.42
	}, {
		"county": "萧县",
		"lon": 116.93,
		"lat": 34.18
	}, {
		"county": "灵璧县",
		"lon": 117.55,
		"lat": 33.55
	}, {
		"county": "泗县",
		"lon": 117.88,
		"lat": 33.48
	}, {
		"county": "巢湖市",
		"lon": 117.87,
		"lat": 31.6
	}, {
		"county": "居巢区",
		"lon": 117.85,
		"lat": 31.6
	}, {
		"county": "庐江县",
		"lon": 117.28,
		"lat": 31.25
	}, {
		"county": "无为县",
		"lon": 117.92,
		"lat": 31.3
	}, {
		"county": "含山县",
		"lon": 118.1,
		"lat": 31.72
	}, {
		"county": "和县",
		"lon": 118.37,
		"lat": 31.72
	}, {
		"county": "六安市",
		"lon": 116.5,
		"lat": 31.77
	}, {
		"county": "金安区",
		"lon": 116.5,
		"lat": 31.77
	}, {
		"county": "裕安区",
		"lon": 116.48,
		"lat": 31.77
	}, {
		"county": "寿县",
		"lon": 116.78,
		"lat": 32.58
	}, {
		"county": "霍邱县",
		"lon": 116.27,
		"lat": 32.33
	}, {
		"county": "舒城县",
		"lon": 116.93,
		"lat": 31.47
	}, {
		"county": "金寨县",
		"lon": 115.92,
		"lat": 31.72
	}, {
		"county": "霍山县",
		"lon": 116.33,
		"lat": 31.4
	}, {
		"county": "亳州市",
		"lon": 115.78,
		"lat": 33.85
	}, {
		"county": "谯城区",
		"lon": 115.77,
		"lat": 33.88
	}, {
		"county": "涡阳县",
		"lon": 116.22,
		"lat": 33.52
	}, {
		"county": "蒙城县",
		"lon": 116.57,
		"lat": 33.27
	}, {
		"county": "利辛县",
		"lon": 116.2,
		"lat": 33.15
	}, {
		"county": "池州市",
		"lon": 117.48,
		"lat": 30.67
	}, {
		"county": "贵池区",
		"lon": 117.48,
		"lat": 30.65
	}, {
		"county": "东至县",
		"lon": 117.02,
		"lat": 30.1
	}, {
		"county": "石台县",
		"lon": 117.48,
		"lat": 30.22
	}, {
		"county": "青阳县",
		"lon": 117.85,
		"lat": 30.65
	}, {
		"county": "宣城市",
		"lon": 118.75,
		"lat": 30.95
	}, {
		"county": "宣州区",
		"lon": 118.75,
		"lat": 30.95
	}, {
		"county": "郎溪县",
		"lon": 119.17,
		"lat": 31.13
	}, {
		"county": "广德县",
		"lon": 119.42,
		"lat": 30.9
	}, {
		"county": "泾县",
		"lon": 118.4,
		"lat": 30.7
	}, {
		"county": "绩溪县",
		"lon": 118.6,
		"lat": 30.07
	}, {
		"county": "旌德县",
		"lon": 118.53,
		"lat": 30.28
	}, {
		"county": "宁国市",
		"lon": 118.98,
		"lat": 30.63
	}, {
		"county": "福州市",
		"lon": 119.3,
		"lat": 26.08
	}, {
		"county": "鼓楼区",
		"lon": 119.3,
		"lat": 26.08
	}, {
		"county": "台江区",
		"lon": 119.3,
		"lat": 26.07
	}, {
		"county": "仓山区",
		"lon": 119.32,
		"lat": 26.05
	}, {
		"county": "马尾区",
		"lon": 119.45,
		"lat": 26.0
	}, {
		"county": "晋安区",
		"lon": 119.32,
		"lat": 26.08
	}, {
		"county": "闽侯县",
		"lon": 119.13,
		"lat": 26.15
	}, {
		"county": "连江县",
		"lon": 119.53,
		"lat": 26.2
	}, {
		"county": "罗源县",
		"lon": 119.55,
		"lat": 26.48
	}, {
		"county": "闽清县",
		"lon": 118.85,
		"lat": 26.22
	}, {
		"county": "永泰县",
		"lon": 118.93,
		"lat": 25.87
	}, {
		"county": "平潭县",
		"lon": 119.78,
		"lat": 25.52
	}, {
		"county": "福清市",
		"lon": 119.38,
		"lat": 25.72
	}, {
		"county": "长乐市",
		"lon": 119.52,
		"lat": 25.97
	}, {
		"county": "厦门市",
		"lon": 118.08,
		"lat": 24.48
	}, {
		"county": "思明区",
		"lon": 118.08,
		"lat": 24.45
	}, {
		"county": "海沧区",
		"lon": 117.98,
		"lat": 24.47
	}, {
		"county": "湖里区",
		"lon": 118.08,
		"lat": 24.52
	}, {
		"county": "集美区",
		"lon": 118.1,
		"lat": 24.57
	}, {
		"county": "同安区",
		"lon": 118.15,
		"lat": 24.73
	}, {
		"county": "翔安区",
		"lon": 118.23,
		"lat": 24.62
	}, {
		"county": "莆田市",
		"lon": 119.0,
		"lat": 25.43
	}, {
		"county": "城厢区",
		"lon": 119.0,
		"lat": 25.43
	}, {
		"county": "涵江区",
		"lon": 119.1,
		"lat": 25.45
	}, {
		"county": "荔城区",
		"lon": 119.02,
		"lat": 25.43
	}, {
		"county": "秀屿区",
		"lon": 119.08,
		"lat": 25.32
	}, {
		"county": "仙游县",
		"lon": 118.68,
		"lat": 25.37
	}, {
		"county": "三明市",
		"lon": 117.62,
		"lat": 26.27
	}, {
		"county": "梅列区",
		"lon": 117.63,
		"lat": 26.27
	}, {
		"county": "三元区",
		"lon": 117.6,
		"lat": 26.23
	}, {
		"county": "明溪县",
		"lon": 117.2,
		"lat": 26.37
	}, {
		"county": "清流县",
		"lon": 116.82,
		"lat": 26.18
	}, {
		"county": "宁化县",
		"lon": 116.65,
		"lat": 26.27
	}, {
		"county": "大田县",
		"lon": 117.85,
		"lat": 25.7
	}, {
		"county": "尤溪县",
		"lon": 118.18,
		"lat": 26.17
	}, {
		"county": "沙县",
		"lon": 117.78,
		"lat": 26.4
	}, {
		"county": "将乐县",
		"lon": 117.47,
		"lat": 26.73
	}, {
		"county": "泰宁县",
		"lon": 117.17,
		"lat": 26.9
	}, {
		"county": "建宁县",
		"lon": 116.83,
		"lat": 26.83
	}, {
		"county": "永安市",
		"lon": 117.37,
		"lat": 25.98
	}, {
		"county": "泉州市",
		"lon": 118.67,
		"lat": 24.88
	}, {
		"county": "鲤城区",
		"lon": 118.6,
		"lat": 24.92
	}, {
		"county": "丰泽区",
		"lon": 118.6,
		"lat": 24.92
	}, {
		"county": "洛江区",
		"lon": 118.67,
		"lat": 24.95
	}, {
		"county": "泉港区",
		"lon": 118.88,
		"lat": 25.12
	}, {
		"county": "惠安县",
		"lon": 118.8,
		"lat": 25.03
	}, {
		"county": "安溪县",
		"lon": 118.18,
		"lat": 25.07
	}, {
		"county": "永春县",
		"lon": 118.3,
		"lat": 25.32
	}, {
		"county": "德化县",
		"lon": 118.23,
		"lat": 25.5
	}, {
		"county": "金门县",
		"lon": 118.32,
		"lat": 24.43
	}, {
		"county": "石狮市",
		"lon": 118.65,
		"lat": 24.73
	}, {
		"county": "晋江市",
		"lon": 118.58,
		"lat": 24.82
	}, {
		"county": "南安市",
		"lon": 118.38,
		"lat": 24.97
	}, {
		"county": "漳州市",
		"lon": 117.65,
		"lat": 24.52
	}, {
		"county": "芗城区",
		"lon": 117.65,
		"lat": 24.52
	}, {
		"county": "龙文区",
		"lon": 117.72,
		"lat": 24.52
	}, {
		"county": "云霄县",
		"lon": 117.33,
		"lat": 23.95
	}, {
		"county": "漳浦县",
		"lon": 117.62,
		"lat": 24.13
	}, {
		"county": "诏安县",
		"lon": 117.18,
		"lat": 23.72
	}, {
		"county": "长泰县",
		"lon": 117.75,
		"lat": 24.62
	}, {
		"county": "东山县",
		"lon": 117.43,
		"lat": 23.7
	}, {
		"county": "南靖县",
		"lon": 117.37,
		"lat": 24.52
	}, {
		"county": "平和县",
		"lon": 117.3,
		"lat": 24.37
	}, {
		"county": "华安县",
		"lon": 117.53,
		"lat": 25.02
	}, {
		"county": "龙海市",
		"lon": 117.82,
		"lat": 24.45
	}, {
		"county": "南平市",
		"lon": 118.17,
		"lat": 26.65
	}, {
		"county": "延平区",
		"lon": 118.17,
		"lat": 26.65
	}, {
		"county": "顺昌县",
		"lon": 117.8,
		"lat": 26.8
	}, {
		"county": "浦城县",
		"lon": 118.53,
		"lat": 27.92
	}, {
		"county": "光泽县",
		"lon": 117.33,
		"lat": 27.55
	}, {
		"county": "松溪县",
		"lon": 118.78,
		"lat": 27.53
	}, {
		"county": "政和县",
		"lon": 118.85,
		"lat": 27.37
	}, {
		"county": "邵武市",
		"lon": 117.48,
		"lat": 27.37
	}, {
		"county": "武夷山市",
		"lon": 118.03,
		"lat": 27.77
	}, {
		"county": "建瓯市",
		"lon": 118.32,
		"lat": 27.03
	}, {
		"county": "建阳市",
		"lon": 118.12,
		"lat": 27.33
	}, {
		"county": "龙岩市",
		"lon": 117.03,
		"lat": 25.1
	}, {
		"county": "新罗区",
		"lon": 117.03,
		"lat": 25.1
	}, {
		"county": "长汀县",
		"lon": 116.35,
		"lat": 25.83
	}, {
		"county": "永定县",
		"lon": 116.73,
		"lat": 24.72
	}, {
		"county": "上杭县",
		"lon": 116.42,
		"lat": 25.05
	}, {
		"county": "武平县",
		"lon": 116.1,
		"lat": 25.1
	}, {
		"county": "连城县",
		"lon": 116.75,
		"lat": 25.72
	}, {
		"county": "漳平市",
		"lon": 117.42,
		"lat": 25.3
	}, {
		"county": "宁德市",
		"lon": 119.52,
		"lat": 26.67
	}, {
		"county": "蕉城区",
		"lon": 119.52,
		"lat": 26.67
	}, {
		"county": "霞浦县",
		"lon": 120.0,
		"lat": 26.88
	}, {
		"county": "古田县",
		"lon": 118.75,
		"lat": 26.58
	}, {
		"county": "屏南县",
		"lon": 118.98,
		"lat": 26.92
	}, {
		"county": "寿宁县",
		"lon": 119.5,
		"lat": 27.47
	}, {
		"county": "周宁县",
		"lon": 119.33,
		"lat": 27.12
	}, {
		"county": "柘荣县",
		"lon": 119.9,
		"lat": 27.23
	}, {
		"county": "福安市",
		"lon": 119.65,
		"lat": 27.08
	}, {
		"county": "福鼎市",
		"lon": 120.22,
		"lat": 27.33
	}, {
		"county": "南昌市",
		"lon": 115.85,
		"lat": 28.68
	}, {
		"county": "东湖区",
		"lon": 115.9,
		"lat": 28.68
	}, {
		"county": "西湖区",
		"lon": 115.87,
		"lat": 28.67
	}, {
		"county": "青云谱区",
		"lon": 115.92,
		"lat": 28.63
	}, {
		"county": "湾里区",
		"lon": 115.73,
		"lat": 28.72
	}, {
		"county": "青山湖区",
		"lon": 115.95,
		"lat": 28.68
	}, {
		"county": "南昌县",
		"lon": 115.93,
		"lat": 28.55
	}, {
		"county": "新建县",
		"lon": 115.82,
		"lat": 28.7
	}, {
		"county": "安义县",
		"lon": 115.55,
		"lat": 28.85
	}, {
		"county": "进贤县",
		"lon": 116.27,
		"lat": 28.37
	}, {
		"county": "景德镇市",
		"lon": 117.17,
		"lat": 29.27
	}, {
		"county": "昌江区",
		"lon": 117.17,
		"lat": 29.27
	}, {
		"county": "珠山区",
		"lon": 117.2,
		"lat": 29.3
	}, {
		"county": "浮梁县",
		"lon": 117.25,
		"lat": 29.37
	}, {
		"county": "乐平市",
		"lon": 117.12,
		"lat": 28.97
	}, {
		"county": "萍乡市",
		"lon": 113.85,
		"lat": 27.63
	}, {
		"county": "安源区",
		"lon": 113.87,
		"lat": 27.65
	}, {
		"county": "湘东区",
		"lon": 113.73,
		"lat": 27.65
	}, {
		"county": "莲花县",
		"lon": 113.95,
		"lat": 27.13
	}, {
		"county": "上栗县",
		"lon": 113.8,
		"lat": 27.88
	}, {
		"county": "芦溪县",
		"lon": 114.03,
		"lat": 27.63
	}, {
		"county": "九江市",
		"lon": 116.0,
		"lat": 29.7
	}, {
		"county": "庐山区",
		"lon": 115.98,
		"lat": 29.68
	}, {
		"county": "浔阳区",
		"lon": 115.98,
		"lat": 29.73
	}, {
		"county": "九江县",
		"lon": 115.88,
		"lat": 29.62
	}, {
		"county": "武宁县",
		"lon": 115.1,
		"lat": 29.27
	}, {
		"county": "修水县",
		"lon": 114.57,
		"lat": 29.03
	}, {
		"county": "永修县",
		"lon": 115.8,
		"lat": 29.03
	}, {
		"county": "德安县",
		"lon": 115.77,
		"lat": 29.33
	}, {
		"county": "星子县",
		"lon": 116.03,
		"lat": 29.45
	}, {
		"county": "都昌县",
		"lon": 116.18,
		"lat": 29.27
	}, {
		"county": "湖口县",
		"lon": 116.22,
		"lat": 29.73
	}, {
		"county": "彭泽县",
		"lon": 116.55,
		"lat": 29.9
	}, {
		"county": "瑞昌市",
		"lon": 115.67,
		"lat": 29.68
	}, {
		"county": "新余市",
		"lon": 114.92,
		"lat": 27.82
	}, {
		"county": "渝水区",
		"lon": 114.93,
		"lat": 27.8
	}, {
		"county": "分宜县",
		"lon": 114.67,
		"lat": 27.82
	}, {
		"county": "鹰潭市",
		"lon": 117.07,
		"lat": 28.27
	}, {
		"county": "月湖区",
		"lon": 117.05,
		"lat": 28.23
	}, {
		"county": "余江县",
		"lon": 116.82,
		"lat": 28.2
	}, {
		"county": "贵溪市",
		"lon": 117.22,
		"lat": 28.28
	}, {
		"county": "赣州市",
		"lon": 114.93,
		"lat": 25.83
	}, {
		"county": "章贡区",
		"lon": 114.93,
		"lat": 25.87
	}, {
		"county": "赣县",
		"lon": 115.0,
		"lat": 25.87
	}, {
		"county": "信丰县",
		"lon": 114.93,
		"lat": 25.38
	}, {
		"county": "大余县",
		"lon": 114.35,
		"lat": 25.4
	}, {
		"county": "上犹县",
		"lon": 114.53,
		"lat": 25.8
	}, {
		"county": "崇义县",
		"lon": 114.3,
		"lat": 25.7
	}, {
		"county": "安远县",
		"lon": 115.38,
		"lat": 25.13
	}, {
		"county": "龙南县",
		"lon": 114.78,
		"lat": 24.92
	}, {
		"county": "定南县",
		"lon": 115.03,
		"lat": 24.78
	}, {
		"county": "全南县",
		"lon": 114.52,
		"lat": 24.75
	}, {
		"county": "宁都县",
		"lon": 116.02,
		"lat": 26.48
	}, {
		"county": "于都县",
		"lon": 115.42,
		"lat": 25.95
	}, {
		"county": "兴国县",
		"lon": 115.35,
		"lat": 26.33
	}, {
		"county": "会昌县",
		"lon": 115.78,
		"lat": 25.6
	}, {
		"county": "寻乌县",
		"lon": 115.65,
		"lat": 24.95
	}, {
		"county": "石城县",
		"lon": 116.33,
		"lat": 26.33
	}, {
		"county": "瑞金市",
		"lon": 116.03,
		"lat": 25.88
	}, {
		"county": "南康市",
		"lon": 114.75,
		"lat": 25.65
	}, {
		"county": "吉安市",
		"lon": 114.98,
		"lat": 27.12
	}, {
		"county": "吉州区",
		"lon": 114.98,
		"lat": 27.12
	}, {
		"county": "青原区",
		"lon": 115.0,
		"lat": 27.1
	}, {
		"county": "吉安县",
		"lon": 114.9,
		"lat": 27.05
	}, {
		"county": "吉水县",
		"lon": 115.13,
		"lat": 27.22
	}, {
		"county": "峡江县",
		"lon": 115.33,
		"lat": 27.62
	}, {
		"county": "新干县",
		"lon": 115.4,
		"lat": 27.77
	}, {
		"county": "永丰县",
		"lon": 115.43,
		"lat": 27.32
	}, {
		"county": "泰和县",
		"lon": 114.88,
		"lat": 26.8
	}, {
		"county": "遂川县",
		"lon": 114.52,
		"lat": 26.33
	}, {
		"county": "万安县",
		"lon": 114.78,
		"lat": 26.47
	}, {
		"county": "安福县",
		"lon": 114.62,
		"lat": 27.38
	}, {
		"county": "永新县",
		"lon": 114.23,
		"lat": 26.95
	}, {
		"county": "井冈山市",
		"lon": 114.27,
		"lat": 26.72
	}, {
		"county": "宜春市",
		"lon": 114.38,
		"lat": 27.8
	}, {
		"county": "袁州区",
		"lon": 114.38,
		"lat": 27.8
	}, {
		"county": "奉新县",
		"lon": 115.38,
		"lat": 28.7
	}, {
		"county": "万载县",
		"lon": 114.43,
		"lat": 28.12
	}, {
		"county": "上高县",
		"lon": 114.92,
		"lat": 28.23
	}, {
		"county": "宜丰县",
		"lon": 114.78,
		"lat": 28.38
	}, {
		"county": "靖安县",
		"lon": 115.35,
		"lat": 28.87
	}, {
		"county": "铜鼓县",
		"lon": 114.37,
		"lat": 28.53
	}, {
		"county": "丰城市",
		"lon": 115.78,
		"lat": 28.2
	}, {
		"county": "樟树市",
		"lon": 115.53,
		"lat": 28.07
	}, {
		"county": "高安市",
		"lon": 115.37,
		"lat": 28.42
	}, {
		"county": "抚州市",
		"lon": 116.35,
		"lat": 28.0
	}, {
		"county": "临川区",
		"lon": 116.35,
		"lat": 27.98
	}, {
		"county": "南城县",
		"lon": 116.63,
		"lat": 27.55
	}, {
		"county": "黎川县",
		"lon": 116.92,
		"lat": 27.3
	}, {
		"county": "南丰县",
		"lon": 116.53,
		"lat": 27.22
	}, {
		"county": "崇仁县",
		"lon": 116.05,
		"lat": 27.77
	}, {
		"county": "乐安县",
		"lon": 115.83,
		"lat": 27.43
	}, {
		"county": "宜黄县",
		"lon": 116.22,
		"lat": 27.55
	}, {
		"county": "金溪县",
		"lon": 116.77,
		"lat": 27.92
	}, {
		"county": "资溪县",
		"lon": 117.07,
		"lat": 27.7
	}, {
		"county": "东乡县",
		"lon": 116.62,
		"lat": 28.23
	}, {
		"county": "广昌县",
		"lon": 116.32,
		"lat": 26.83
	}, {
		"county": "上饶市",
		"lon": 117.97,
		"lat": 28.45
	}, {
		"county": "信州区",
		"lon": 117.95,
		"lat": 28.43
	}, {
		"county": "上饶县",
		"lon": 117.92,
		"lat": 28.43
	}, {
		"county": "广丰县",
		"lon": 118.18,
		"lat": 28.43
	}, {
		"county": "玉山县",
		"lon": 118.25,
		"lat": 28.68
	}, {
		"county": "铅山县",
		"lon": 117.7,
		"lat": 28.32
	}, {
		"county": "横峰县",
		"lon": 117.6,
		"lat": 28.42
	}, {
		"county": "弋阳县",
		"lon": 117.43,
		"lat": 28.4
	}, {
		"county": "余干县",
		"lon": 116.68,
		"lat": 28.7
	}, {
		"county": "鄱阳县",
		"lon": 116.67,
		"lat": 29.0
	}, {
		"county": "万年县",
		"lon": 117.07,
		"lat": 28.7
	}, {
		"county": "婺源县",
		"lon": 117.85,
		"lat": 29.25
	}, {
		"county": "德兴市",
		"lon": 117.57,
		"lat": 28.95
	}, {
		"county": "济南市",
		"lon": 116.98,
		"lat": 36.67
	}, {
		"county": "历下区",
		"lon": 117.08,
		"lat": 36.67
	}, {
		"county": "市中区",
		"lon": 117.0,
		"lat": 36.65
	}, {
		"county": "市中区",
		"lon": 116.58,
		"lat": 35.4
	}, {
		"county": "市中区",
		"lon": 117.57,
		"lat": 34.87
	}, {
		"county": "槐荫区",
		"lon": 116.93,
		"lat": 36.65
	}, {
		"county": "天桥区",
		"lon": 116.98,
		"lat": 36.68
	}, {
		"county": "历城区",
		"lon": 117.07,
		"lat": 36.68
	}, {
		"county": "长清区",
		"lon": 116.73,
		"lat": 36.55
	}, {
		"county": "平阴县",
		"lon": 116.45,
		"lat": 36.28
	}, {
		"county": "济阳县",
		"lon": 117.22,
		"lat": 36.98
	}, {
		"county": "商河县",
		"lon": 117.15,
		"lat": 37.32
	}, {
		"county": "章丘市",
		"lon": 117.53,
		"lat": 36.72
	}, {
		"county": "青岛市",
		"lon": 120.38,
		"lat": 36.07
	}, {
		"county": "市南区",
		"lon": 120.38,
		"lat": 36.07
	}, {
		"county": "市北区",
		"lon": 120.38,
		"lat": 36.08
	}, {
		"county": "四方区",
		"lon": 120.35,
		"lat": 36.1
	}, {
		"county": "黄岛区",
		"lon": 120.18,
		"lat": 35.97
	}, {
		"county": "崂山区",
		"lon": 120.47,
		"lat": 36.1
	}, {
		"county": "李沧区",
		"lon": 120.43,
		"lat": 36.15
	}, {
		"county": "城阳区",
		"lon": 120.37,
		"lat": 36.3
	}, {
		"county": "胶州市",
		"lon": 120.03,
		"lat": 36.27
	}, {
		"county": "即墨市",
		"lon": 120.45,
		"lat": 36.38
	}, {
		"county": "平度市",
		"lon": 119.95,
		"lat": 36.78
	}, {
		"county": "胶南市",
		"lon": 120.03,
		"lat": 35.87
	}, {
		"county": "莱西市",
		"lon": 120.5,
		"lat": 36.87
	}, {
		"county": "淄博市",
		"lon": 118.05,
		"lat": 36.82
	}, {
		"county": "张店区",
		"lon": 118.03,
		"lat": 36.82
	}, {
		"county": "博山区",
		"lon": 117.85,
		"lat": 36.5
	}, {
		"county": "临淄区",
		"lon": 118.3,
		"lat": 36.82
	}, {
		"county": "周村区",
		"lon": 117.87,
		"lat": 36.8
	}, {
		"county": "桓台县",
		"lon": 118.08,
		"lat": 36.97
	}, {
		"county": "高青县",
		"lon": 117.82,
		"lat": 37.17
	}, {
		"county": "沂源县",
		"lon": 118.17,
		"lat": 36.18
	}, {
		"county": "枣庄市",
		"lon": 117.32,
		"lat": 34.82
	}, {
		"county": "市中区",
		"lon": 117.0,
		"lat": 36.65
	}, {
		"county": "市中区",
		"lon": 116.58,
		"lat": 35.4
	}, {
		"county": "市中区",
		"lon": 117.57,
		"lat": 34.87
	}, {
		"county": "薛城区",
		"lon": 117.25,
		"lat": 34.8
	}, {
		"county": "峄城区",
		"lon": 117.58,
		"lat": 34.77
	}, {
		"county": "台儿庄区",
		"lon": 117.73,
		"lat": 34.57
	}, {
		"county": "山亭区",
		"lon": 117.45,
		"lat": 35.08
	}, {
		"county": "滕州市",
		"lon": 117.15,
		"lat": 35.08
	}, {
		"county": "东营市",
		"lon": 118.67,
		"lat": 37.43
	}, {
		"county": "东营区",
		"lon": 118.5,
		"lat": 37.47
	}, {
		"county": "河口区",
		"lon": 118.53,
		"lat": 37.88
	}, {
		"county": "垦利县",
		"lon": 118.55,
		"lat": 37.58
	}, {
		"county": "利津县",
		"lon": 118.25,
		"lat": 37.48
	}, {
		"county": "广饶县",
		"lon": 118.4,
		"lat": 37.07
	}, {
		"county": "烟台市",
		"lon": 121.43,
		"lat": 37.45
	}, {
		"county": "芝罘区",
		"lon": 121.38,
		"lat": 37.53
	}, {
		"county": "福山区",
		"lon": 121.25,
		"lat": 37.5
	}, {
		"county": "牟平区",
		"lon": 121.6,
		"lat": 37.38
	}, {
		"county": "莱山区",
		"lon": 121.43,
		"lat": 37.5
	}, {
		"county": "长岛县",
		"lon": 120.73,
		"lat": 37.92
	}, {
		"county": "龙口市",
		"lon": 120.52,
		"lat": 37.65
	}, {
		"county": "莱阳市",
		"lon": 120.7,
		"lat": 36.98
	}, {
		"county": "莱州市",
		"lon": 119.93,
		"lat": 37.18
	}, {
		"county": "蓬莱市",
		"lon": 120.75,
		"lat": 37.82
	}, {
		"county": "招远市",
		"lon": 120.4,
		"lat": 37.37
	}, {
		"county": "栖霞市",
		"lon": 120.83,
		"lat": 37.3
	}, {
		"county": "海阳市",
		"lon": 121.15,
		"lat": 36.78
	}, {
		"county": "潍坊市",
		"lon": 119.15,
		"lat": 36.7
	}, {
		"county": "潍城区",
		"lon": 119.1,
		"lat": 36.72
	}, {
		"county": "寒亭区",
		"lon": 119.22,
		"lat": 36.77
	}, {
		"county": "坊子区",
		"lon": 119.17,
		"lat": 36.67
	}, {
		"county": "奎文区",
		"lon": 119.12,
		"lat": 36.72
	}, {
		"county": "临朐县",
		"lon": 118.53,
		"lat": 36.52
	}, {
		"county": "昌乐县",
		"lon": 118.82,
		"lat": 36.7
	}, {
		"county": "青州市",
		"lon": 118.47,
		"lat": 36.68
	}, {
		"county": "诸城市",
		"lon": 119.4,
		"lat": 36.0
	}, {
		"county": "寿光市",
		"lon": 118.73,
		"lat": 36.88
	}, {
		"county": "安丘市",
		"lon": 119.2,
		"lat": 36.43
	}, {
		"county": "高密市",
		"lon": 119.75,
		"lat": 36.38
	}, {
		"county": "昌邑市",
		"lon": 119.4,
		"lat": 36.87
	}, {
		"county": "济宁市",
		"lon": 116.58,
		"lat": 35.42
	}, {
		"county": "市中区",
		"lon": 117.0,
		"lat": 36.65
	}, {
		"county": "市中区",
		"lon": 116.58,
		"lat": 35.4
	}, {
		"county": "市中区",
		"lon": 117.57,
		"lat": 34.87
	}, {
		"county": "任城区",
		"lon": 116.58,
		"lat": 35.42
	}, {
		"county": "微山县",
		"lon": 117.13,
		"lat": 34.82
	}, {
		"county": "鱼台县",
		"lon": 116.65,
		"lat": 35.0
	}, {
		"county": "金乡县",
		"lon": 116.3,
		"lat": 35.07
	}, {
		"county": "嘉祥县",
		"lon": 116.33,
		"lat": 35.42
	}, {
		"county": "汶上县",
		"lon": 116.48,
		"lat": 35.73
	}, {
		"county": "泗水县",
		"lon": 117.27,
		"lat": 35.67
	}, {
		"county": "梁山县",
		"lon": 116.08,
		"lat": 35.8
	}, {
		"county": "曲阜市",
		"lon": 116.98,
		"lat": 35.58
	}, {
		"county": "兖州市",
		"lon": 116.83,
		"lat": 35.55
	}, {
		"county": "邹城市",
		"lon": 116.97,
		"lat": 35.4
	}, {
		"county": "泰安市",
		"lon": 117.08,
		"lat": 36.2
	}, {
		"county": "泰山区",
		"lon": 117.13,
		"lat": 36.18
	}, {
		"county": "岱岳区",
		"lon": 117.0,
		"lat": 36.18
	}, {
		"county": "宁阳县",
		"lon": 116.8,
		"lat": 35.77
	}, {
		"county": "东平县",
		"lon": 116.47,
		"lat": 35.93
	}, {
		"county": "新泰市",
		"lon": 117.77,
		"lat": 35.92
	}, {
		"county": "肥城市",
		"lon": 116.77,
		"lat": 36.18
	}, {
		"county": "威海市",
		"lon": 122.12,
		"lat": 37.52
	}, {
		"county": "环翠区",
		"lon": 122.12,
		"lat": 37.5
	}, {
		"county": "文登市",
		"lon": 122.05,
		"lat": 37.2
	}, {
		"county": "荣成市",
		"lon": 122.42,
		"lat": 37.17
	}, {
		"county": "乳山市",
		"lon": 121.53,
		"lat": 36.92
	}, {
		"county": "日照市",
		"lon": 119.52,
		"lat": 35.42
	}, {
		"county": "东港区",
		"lon": 119.45,
		"lat": 35.42
	}, {
		"county": "岚山区",
		"lon": 119.33,
		"lat": 35.1
	}, {
		"county": "五莲县",
		"lon": 119.2,
		"lat": 35.75
	}, {
		"county": "莒县",
		"lon": 118.83,
		"lat": 35.58
	}, {
		"county": "莱芜市",
		"lon": 117.67,
		"lat": 36.22
	}, {
		"county": "莱城区",
		"lon": 117.65,
		"lat": 36.2
	}, {
		"county": "钢城区",
		"lon": 117.8,
		"lat": 36.07
	}, {
		"county": "临沂市",
		"lon": 118.35,
		"lat": 35.05
	}, {
		"county": "兰山区",
		"lon": 118.33,
		"lat": 35.07
	}, {
		"county": "罗庄区",
		"lon": 118.28,
		"lat": 34.98
	}, {
		"county": "河东区",
		"lon": 118.4,
		"lat": 35.08
	}, {
		"county": "沂南县",
		"lon": 118.47,
		"lat": 35.55
	}, {
		"county": "郯城县",
		"lon": 118.35,
		"lat": 34.62
	}, {
		"county": "沂水县",
		"lon": 118.62,
		"lat": 35.78
	}, {
		"county": "苍山县",
		"lon": 118.05,
		"lat": 34.85
	}, {
		"county": "费县",
		"lon": 117.97,
		"lat": 35.27
	}, {
		"county": "平邑县",
		"lon": 117.63,
		"lat": 35.5
	}, {
		"county": "莒南县",
		"lon": 118.83,
		"lat": 35.18
	}, {
		"county": "蒙阴县",
		"lon": 117.93,
		"lat": 35.72
	}, {
		"county": "临沭县",
		"lon": 118.65,
		"lat": 34.92
	}, {
		"county": "德州市",
		"lon": 116.3,
		"lat": 37.45
	}, {
		"county": "德城区",
		"lon": 116.3,
		"lat": 37.45
	}, {
		"county": "陵县",
		"lon": 116.57,
		"lat": 37.33
	}, {
		"county": "宁津县",
		"lon": 116.78,
		"lat": 37.65
	}, {
		"county": "庆云县",
		"lon": 117.38,
		"lat": 37.78
	}, {
		"county": "临邑县",
		"lon": 116.87,
		"lat": 37.18
	}, {
		"county": "齐河县",
		"lon": 116.75,
		"lat": 36.8
	}, {
		"county": "平原县",
		"lon": 116.43,
		"lat": 37.17
	}, {
		"county": "夏津县",
		"lon": 116.0,
		"lat": 36.95
	}, {
		"county": "武城县",
		"lon": 116.07,
		"lat": 37.22
	}, {
		"county": "乐陵市",
		"lon": 117.23,
		"lat": 37.73
	}, {
		"county": "禹城市",
		"lon": 116.63,
		"lat": 36.93
	}, {
		"county": "聊城市",
		"lon": 115.98,
		"lat": 36.45
	}, {
		"county": "东昌府区",
		"lon": 115.98,
		"lat": 36.45
	}, {
		"county": "阳谷县",
		"lon": 115.78,
		"lat": 36.12
	}, {
		"county": "莘县",
		"lon": 115.67,
		"lat": 36.23
	}, {
		"county": "茌平县",
		"lon": 116.25,
		"lat": 36.58
	}, {
		"county": "东阿县",
		"lon": 116.25,
		"lat": 36.33
	}, {
		"county": "冠县",
		"lon": 115.43,
		"lat": 36.48
	}, {
		"county": "高唐县",
		"lon": 116.23,
		"lat": 36.87
	}, {
		"county": "临清市",
		"lon": 115.7,
		"lat": 36.85
	}, {
		"county": "滨州市",
		"lon": 117.97,
		"lat": 37.38
	}, {
		"county": "滨城区",
		"lon": 118.0,
		"lat": 37.38
	}, {
		"county": "惠民县",
		"lon": 117.5,
		"lat": 37.48
	}, {
		"county": "阳信县",
		"lon": 117.58,
		"lat": 37.63
	}, {
		"county": "无棣县",
		"lon": 117.6,
		"lat": 37.73
	}, {
		"county": "沾化县",
		"lon": 118.13,
		"lat": 37.7
	}, {
		"county": "博兴县",
		"lon": 118.13,
		"lat": 37.15
	}, {
		"county": "邹平县",
		"lon": 117.73,
		"lat": 36.88
	}, {
		"county": "牡丹区",
		"lon": 115.43,
		"lat": 35.25
	}, {
		"county": "曹县",
		"lon": 115.53,
		"lat": 34.83
	}, {
		"county": "单县",
		"lon": 116.08,
		"lat": 34.8
	}, {
		"county": "成武县",
		"lon": 115.88,
		"lat": 34.95
	}, {
		"county": "巨野县",
		"lon": 116.08,
		"lat": 35.4
	}, {
		"county": "郓城县",
		"lon": 115.93,
		"lat": 35.6
	}, {
		"county": "鄄城县",
		"lon": 115.5,
		"lat": 35.57
	}, {
		"county": "定陶县",
		"lon": 115.57,
		"lat": 35.07
	}, {
		"county": "东明县",
		"lon": 115.08,
		"lat": 35.28
	}, {
		"county": "郑州市",
		"lon": 113.62,
		"lat": 34.75
	}, {
		"county": "中原区",
		"lon": 113.6,
		"lat": 34.75
	}, {
		"county": "二七区",
		"lon": 113.65,
		"lat": 34.73
	}, {
		"county": "管城回族区",
		"lon": 113.67,
		"lat": 34.75
	}, {
		"county": "金水区",
		"lon": 113.65,
		"lat": 34.78
	}, {
		"county": "上街区",
		"lon": 113.28,
		"lat": 34.82
	}, {
		"county": "惠济区",
		"lon": 113.6,
		"lat": 34.87
	}, {
		"county": "中牟县",
		"lon": 113.97,
		"lat": 34.72
	}, {
		"county": "巩义市",
		"lon": 112.98,
		"lat": 34.77
	}, {
		"county": "荥阳市",
		"lon": 113.4,
		"lat": 34.78
	}, {
		"county": "新密市",
		"lon": 113.38,
		"lat": 34.53
	}, {
		"county": "新郑市",
		"lon": 113.73,
		"lat": 34.4
	}, {
		"county": "登封市",
		"lon": 113.03,
		"lat": 34.47
	}, {
		"county": "开封市",
		"lon": 114.3,
		"lat": 34.8
	}, {
		"county": "龙亭区",
		"lon": 114.35,
		"lat": 34.8
	}, {
		"county": "顺河回族区",
		"lon": 114.35,
		"lat": 34.8
	}, {
		"county": "鼓楼区",
		"lon": 114.35,
		"lat": 34.78
	}, {
		"county": "杞县",
		"lon": 114.78,
		"lat": 34.55
	}, {
		"county": "通许县",
		"lon": 114.47,
		"lat": 34.48
	}, {
		"county": "尉氏县",
		"lon": 114.18,
		"lat": 34.42
	}, {
		"county": "开封县",
		"lon": 114.43,
		"lat": 34.77
	}, {
		"county": "兰考县",
		"lon": 114.82,
		"lat": 34.82
	}, {
		"county": "洛阳市",
		"lon": 112.45,
		"lat": 34.62
	}, {
		"county": "老城区",
		"lon": 112.47,
		"lat": 34.68
	}, {
		"county": "西工区",
		"lon": 112.43,
		"lat": 34.67
	}, {
		"county": "涧西区",
		"lon": 112.4,
		"lat": 34.67
	}, {
		"county": "吉利区",
		"lon": 112.58,
		"lat": 34.9
	}, {
		"county": "洛龙区",
		"lon": 112.45,
		"lat": 34.62
	}, {
		"county": "孟津县",
		"lon": 112.43,
		"lat": 34.83
	}, {
		"county": "新安县",
		"lon": 112.15,
		"lat": 34.72
	}, {
		"county": "栾川县",
		"lon": 111.62,
		"lat": 33.78
	}, {
		"county": "嵩县",
		"lon": 112.1,
		"lat": 34.15
	}, {
		"county": "汝阳县",
		"lon": 112.47,
		"lat": 34.15
	}, {
		"county": "宜阳县",
		"lon": 112.17,
		"lat": 34.52
	}, {
		"county": "洛宁县",
		"lon": 111.65,
		"lat": 34.38
	}, {
		"county": "伊川县",
		"lon": 112.42,
		"lat": 34.42
	}, {
		"county": "偃师市",
		"lon": 112.78,
		"lat": 34.73
	}, {
		"county": "平顶山市",
		"lon": 113.18,
		"lat": 33.77
	}, {
		"county": "新华区",
		"lon": 113.3,
		"lat": 33.73
	}, {
		"county": "卫东区",
		"lon": 113.33,
		"lat": 33.73
	}, {
		"county": "石龙区",
		"lon": 112.88,
		"lat": 33.9
	}, {
		"county": "湛河区",
		"lon": 113.28,
		"lat": 33.73
	}, {
		"county": "宝丰县",
		"lon": 113.07,
		"lat": 33.88
	}, {
		"county": "叶县",
		"lon": 113.35,
		"lat": 33.62
	}, {
		"county": "鲁山县",
		"lon": 112.9,
		"lat": 33.73
	}, {
		"county": "郏县",
		"lon": 113.22,
		"lat": 33.97
	}, {
		"county": "舞钢市",
		"lon": 113.52,
		"lat": 33.3
	}, {
		"county": "汝州市",
		"lon": 112.83,
		"lat": 34.17
	}, {
		"county": "安阳市",
		"lon": 114.38,
		"lat": 36.1
	}, {
		"county": "文峰区",
		"lon": 114.35,
		"lat": 36.08
	}, {
		"county": "北关区",
		"lon": 114.35,
		"lat": 36.12
	}, {
		"county": "殷都区",
		"lon": 114.3,
		"lat": 36.12
	}, {
		"county": "龙安区",
		"lon": 114.32,
		"lat": 36.1
	}, {
		"county": "安阳县",
		"lon": 114.35,
		"lat": 36.1
	}, {
		"county": "汤阴县",
		"lon": 114.35,
		"lat": 35.92
	}, {
		"county": "滑县",
		"lon": 114.52,
		"lat": 35.58
	}, {
		"county": "内黄县",
		"lon": 114.9,
		"lat": 35.95
	}, {
		"county": "林州市",
		"lon": 113.82,
		"lat": 36.07
	}, {
		"county": "鹤壁市",
		"lon": 114.28,
		"lat": 35.75
	}, {
		"county": "鹤山区",
		"lon": 114.15,
		"lat": 35.95
	}, {
		"county": "山城区",
		"lon": 114.18,
		"lat": 35.9
	}, {
		"county": "淇滨区",
		"lon": 114.3,
		"lat": 35.73
	}, {
		"county": "浚县",
		"lon": 114.55,
		"lat": 35.67
	}, {
		"county": "淇县",
		"lon": 114.2,
		"lat": 35.6
	}, {
		"county": "新乡市",
		"lon": 113.9,
		"lat": 35.3
	}, {
		"county": "红旗区",
		"lon": 113.87,
		"lat": 35.3
	}, {
		"county": "卫滨区",
		"lon": 113.85,
		"lat": 35.3
	}, {
		"county": "凤泉区",
		"lon": 113.92,
		"lat": 35.38
	}, {
		"county": "牧野区",
		"lon": 113.9,
		"lat": 35.32
	}, {
		"county": "新乡县",
		"lon": 113.8,
		"lat": 35.2
	}, {
		"county": "获嘉县",
		"lon": 113.65,
		"lat": 35.27
	}, {
		"county": "原阳县",
		"lon": 113.97,
		"lat": 35.05
	}, {
		"county": "延津县",
		"lon": 114.2,
		"lat": 35.15
	}, {
		"county": "封丘县",
		"lon": 114.42,
		"lat": 35.05
	}, {
		"county": "长垣县",
		"lon": 114.68,
		"lat": 35.2
	}, {
		"county": "卫辉市",
		"lon": 114.07,
		"lat": 35.4
	}, {
		"county": "辉县市",
		"lon": 113.8,
		"lat": 35.47
	}, {
		"county": "焦作市",
		"lon": 113.25,
		"lat": 35.22
	}, {
		"county": "解放区",
		"lon": 113.22,
		"lat": 35.25
	}, {
		"county": "中站区",
		"lon": 113.17,
		"lat": 35.23
	}, {
		"county": "马村区",
		"lon": 113.32,
		"lat": 35.27
	}, {
		"county": "山阳区",
		"lon": 113.25,
		"lat": 35.22
	}, {
		"county": "修武县",
		"lon": 113.43,
		"lat": 35.23
	}, {
		"county": "博爱县",
		"lon": 113.07,
		"lat": 35.17
	}, {
		"county": "武陟县",
		"lon": 113.38,
		"lat": 35.1
	}, {
		"county": "温县",
		"lon": 113.08,
		"lat": 34.93
	}, {
		"county": "济源市",
		"lon": 112.58,
		"lat": 35.07
	}, {
		"county": "沁阳市",
		"lon": 112.93,
		"lat": 35.08
	}, {
		"county": "孟州市",
		"lon": 112.78,
		"lat": 34.9
	}, {
		"county": "濮阳市",
		"lon": 115.03,
		"lat": 35.77
	}, {
		"county": "华龙区",
		"lon": 115.07,
		"lat": 35.78
	}, {
		"county": "清丰县",
		"lon": 115.12,
		"lat": 35.9
	}, {
		"county": "南乐县",
		"lon": 115.2,
		"lat": 36.08
	}, {
		"county": "范县",
		"lon": 115.5,
		"lat": 35.87
	}, {
		"county": "台前县",
		"lon": 115.85,
		"lat": 36.0
	}, {
		"county": "濮阳县",
		"lon": 115.02,
		"lat": 35.7
	}, {
		"county": "许昌市",
		"lon": 113.85,
		"lat": 34.03
	}, {
		"county": "魏都区",
		"lon": 113.82,
		"lat": 34.03
	}, {
		"county": "许昌县",
		"lon": 113.83,
		"lat": 34.0
	}, {
		"county": "鄢陵县",
		"lon": 114.2,
		"lat": 34.1
	}, {
		"county": "襄城县",
		"lon": 113.48,
		"lat": 33.85
	}, {
		"county": "禹州市",
		"lon": 113.47,
		"lat": 34.17
	}, {
		"county": "长葛市",
		"lon": 113.77,
		"lat": 34.22
	}, {
		"county": "漯河市",
		"lon": 114.02,
		"lat": 33.58
	}, {
		"county": "郾城区",
		"lon": 114.0,
		"lat": 33.58
	}, {
		"county": "召陵区",
		"lon": 114.07,
		"lat": 33.57
	}, {
		"county": "舞阳县",
		"lon": 113.6,
		"lat": 33.43
	}, {
		"county": "临颍县",
		"lon": 113.93,
		"lat": 33.82
	}, {
		"county": "三门峡市",
		"lon": 111.2,
		"lat": 34.78
	}, {
		"county": "湖滨区",
		"lon": 111.2,
		"lat": 34.78
	}, {
		"county": "渑池县",
		"lon": 111.75,
		"lat": 34.77
	}, {
		"county": "陕县",
		"lon": 111.08,
		"lat": 34.7
	}, {
		"county": "卢氏县",
		"lon": 111.05,
		"lat": 34.05
	}, {
		"county": "义马市",
		"lon": 111.87,
		"lat": 34.75
	}, {
		"county": "灵宝市",
		"lon": 110.87,
		"lat": 34.52
	}, {
		"county": "南阳市",
		"lon": 112.52,
		"lat": 33.0
	}, {
		"county": "宛城区",
		"lon": 112.55,
		"lat": 33.02
	}, {
		"county": "卧龙区",
		"lon": 112.53,
		"lat": 32.98
	}, {
		"county": "南召县",
		"lon": 112.43,
		"lat": 33.5
	}, {
		"county": "方城县",
		"lon": 113.0,
		"lat": 33.27
	}, {
		"county": "西峡县",
		"lon": 111.48,
		"lat": 33.28
	}, {
		"county": "镇平县",
		"lon": 112.23,
		"lat": 33.03
	}, {
		"county": "内乡县",
		"lon": 111.85,
		"lat": 33.05
	}, {
		"county": "淅川县",
		"lon": 111.48,
		"lat": 33.13
	}, {
		"county": "社旗县",
		"lon": 112.93,
		"lat": 33.05
	}, {
		"county": "唐河县",
		"lon": 112.83,
		"lat": 32.7
	}, {
		"county": "新野县",
		"lon": 112.35,
		"lat": 32.52
	}, {
		"county": "桐柏县",
		"lon": 113.4,
		"lat": 32.37
	}, {
		"county": "邓州市",
		"lon": 112.08,
		"lat": 32.68
	}, {
		"county": "商丘市",
		"lon": 115.65,
		"lat": 34.45
	}, {
		"county": "梁园区",
		"lon": 115.63,
		"lat": 34.45
	}, {
		"county": "睢阳区",
		"lon": 115.63,
		"lat": 34.38
	}, {
		"county": "民权县",
		"lon": 115.13,
		"lat": 34.65
	}, {
		"county": "睢县",
		"lon": 115.07,
		"lat": 34.45
	}, {
		"county": "宁陵县",
		"lon": 115.32,
		"lat": 34.45
	}, {
		"county": "柘城县",
		"lon": 115.3,
		"lat": 34.07
	}, {
		"county": "虞城县",
		"lon": 115.85,
		"lat": 34.4
	}, {
		"county": "夏邑县",
		"lon": 116.13,
		"lat": 34.23
	}, {
		"county": "永城市",
		"lon": 116.43,
		"lat": 33.92
	}, {
		"county": "信阳市",
		"lon": 114.07,
		"lat": 32.13
	}, {
		"county": "浉河区",
		"lon": 114.05,
		"lat": 32.12
	}, {
		"county": "平桥区",
		"lon": 114.12,
		"lat": 32.1
	}, {
		"county": "罗山县",
		"lon": 114.53,
		"lat": 32.2
	}, {
		"county": "光山县",
		"lon": 114.9,
		"lat": 32.02
	}, {
		"county": "新县",
		"lon": 114.87,
		"lat": 31.63
	}, {
		"county": "商城县",
		"lon": 115.4,
		"lat": 31.8
	}, {
		"county": "固始县",
		"lon": 115.68,
		"lat": 32.18
	}, {
		"county": "潢川县",
		"lon": 115.03,
		"lat": 32.13
	}, {
		"county": "淮滨县",
		"lon": 115.4,
		"lat": 32.43
	}, {
		"county": "息县",
		"lon": 114.73,
		"lat": 32.35
	}, {
		"county": "周口市",
		"lon": 114.65,
		"lat": 33.62
	}, {
		"county": "扶沟县",
		"lon": 114.38,
		"lat": 34.07
	}, {
		"county": "西华县",
		"lon": 114.53,
		"lat": 33.8
	}, {
		"county": "商水县",
		"lon": 114.6,
		"lat": 33.53
	}, {
		"county": "沈丘县",
		"lon": 115.07,
		"lat": 33.4
	}, {
		"county": "郸城县",
		"lon": 115.2,
		"lat": 33.65
	}, {
		"county": "淮阳县",
		"lon": 114.88,
		"lat": 33.73
	}, {
		"county": "太康县",
		"lon": 114.85,
		"lat": 34.07
	}, {
		"county": "鹿邑县",
		"lon": 115.48,
		"lat": 33.87
	}, {
		"county": "项城市",
		"lon": 114.9,
		"lat": 33.45
	}, {
		"county": "驻马店市",
		"lon": 114.02,
		"lat": 32.98
	}, {
		"county": "驿城区",
		"lon": 114.05,
		"lat": 32.97
	}, {
		"county": "西平县",
		"lon": 114.02,
		"lat": 33.38
	}, {
		"county": "上蔡县",
		"lon": 114.27,
		"lat": 33.27
	}, {
		"county": "平舆县",
		"lon": 114.63,
		"lat": 32.97
	}, {
		"county": "正阳县",
		"lon": 114.38,
		"lat": 32.6
	}, {
		"county": "确山县",
		"lon": 114.02,
		"lat": 32.8
	}, {
		"county": "泌阳县",
		"lon": 113.32,
		"lat": 32.72
	}, {
		"county": "汝南县",
		"lon": 114.35,
		"lat": 33.0
	}, {
		"county": "遂平县",
		"lon": 114.0,
		"lat": 33.15
	}, {
		"county": "新蔡县",
		"lon": 114.98,
		"lat": 32.75
	}, {
		"county": "武汉市",
		"lon": 114.3,
		"lat": 30.6
	}, {
		"county": "江岸区",
		"lon": 114.3,
		"lat": 30.6
	}, {
		"county": "江汉区",
		"lon": 114.27,
		"lat": 30.6
	}, {
		"county": "硚口区",
		"lon": 114.27,
		"lat": 30.57
	}, {
		"county": "汉阳区",
		"lon": 114.27,
		"lat": 30.55
	}, {
		"county": "武昌区",
		"lon": 114.3,
		"lat": 30.57
	}, {
		"county": "青山区",
		"lon": 114.38,
		"lat": 30.63
	}, {
		"county": "洪山区",
		"lon": 114.33,
		"lat": 30.5
	}, {
		"county": "东西湖区",
		"lon": 114.13,
		"lat": 30.62
	}, {
		"county": "汉南区",
		"lon": 114.08,
		"lat": 30.32
	}, {
		"county": "蔡甸区",
		"lon": 114.03,
		"lat": 30.58
	}, {
		"county": "江夏区",
		"lon": 114.32,
		"lat": 30.35
	}, {
		"county": "黄陂区",
		"lon": 114.37,
		"lat": 30.87
	}, {
		"county": "新洲区",
		"lon": 114.8,
		"lat": 30.85
	}, {
		"county": "黄石市",
		"lon": 115.03,
		"lat": 30.2
	}, {
		"county": "黄石港区",
		"lon": 115.07,
		"lat": 30.23
	}, {
		"county": "西塞山区",
		"lon": 115.12,
		"lat": 30.2
	}, {
		"county": "下陆区",
		"lon": 114.97,
		"lat": 30.18
	}, {
		"county": "铁山区",
		"lon": 114.9,
		"lat": 30.2
	}, {
		"county": "阳新县",
		"lon": 115.2,
		"lat": 29.85
	}, {
		"county": "大冶市",
		"lon": 114.97,
		"lat": 30.1
	}, {
		"county": "十堰市",
		"lon": 110.78,
		"lat": 32.65
	}, {
		"county": "茅箭区",
		"lon": 110.82,
		"lat": 32.6
	}, {
		"county": "张湾区",
		"lon": 110.78,
		"lat": 32.65
	}, {
		"county": "郧县",
		"lon": 110.82,
		"lat": 32.83
	}, {
		"county": "郧西县",
		"lon": 110.42,
		"lat": 33.0
	}, {
		"county": "竹山县",
		"lon": 110.23,
		"lat": 32.23
	}, {
		"county": "竹溪县",
		"lon": 109.72,
		"lat": 32.32
	}, {
		"county": "房县",
		"lon": 110.73,
		"lat": 32.07
	}, {
		"county": "丹江口市",
		"lon": 111.52,
		"lat": 32.55
	}, {
		"county": "宜昌市",
		"lon": 111.28,
		"lat": 30.7
	}, {
		"county": "西陵区",
		"lon": 111.27,
		"lat": 30.7
	}, {
		"county": "伍家岗区",
		"lon": 111.35,
		"lat": 30.65
	}, {
		"county": "点军区",
		"lon": 111.27,
		"lat": 30.7
	}, {
		"county": "猇亭区",
		"lon": 111.42,
		"lat": 30.53
	}, {
		"county": "夷陵区",
		"lon": 111.32,
		"lat": 30.77
	}, {
		"county": "远安县",
		"lon": 111.63,
		"lat": 31.07
	}, {
		"county": "兴山县",
		"lon": 110.75,
		"lat": 31.35
	}, {
		"county": "秭归县",
		"lon": 110.98,
		"lat": 30.83
	}, {
		"county": "长阳土家族自治县",
		"lon": 111.18,
		"lat": 30.47
	}, {
		"county": "五峰土家族自治县",
		"lon": 110.67,
		"lat": 30.2
	}, {
		"county": "宜都市",
		"lon": 111.45,
		"lat": 30.4
	}, {
		"county": "当阳市",
		"lon": 111.78,
		"lat": 30.82
	}, {
		"county": "枝江市",
		"lon": 111.77,
		"lat": 30.43
	}, {
		"county": "襄樊市",
		"lon": 112.15,
		"lat": 32.02
	}, {
		"county": "襄城区",
		"lon": 112.15,
		"lat": 32.02
	}, {
		"county": "樊城区",
		"lon": 112.13,
		"lat": 32.03
	}, {
		"county": "襄阳区",
		"lon": 112.2,
		"lat": 32.08
	}, {
		"county": "南漳县",
		"lon": 111.83,
		"lat": 31.78
	}, {
		"county": "谷城县",
		"lon": 111.65,
		"lat": 32.27
	}, {
		"county": "保康县",
		"lon": 111.25,
		"lat": 31.88
	}, {
		"county": "老河口市",
		"lon": 111.67,
		"lat": 32.38
	}, {
		"county": "枣阳市",
		"lon": 112.75,
		"lat": 32.13
	}, {
		"county": "宜城市",
		"lon": 112.25,
		"lat": 31.72
	}, {
		"county": "鄂州市",
		"lon": 114.88,
		"lat": 30.4
	}, {
		"county": "梁子湖区",
		"lon": 114.67,
		"lat": 30.08
	}, {
		"county": "华容区",
		"lon": 114.73,
		"lat": 30.53
	}, {
		"county": "鄂城区",
		"lon": 114.88,
		"lat": 30.4
	}, {
		"county": "荆门市",
		"lon": 112.2,
		"lat": 31.03
	},